time,x,vx,u0,roll,roll_sp,gx,y,vy,u1,pitch,pitch_sp,gy,yaw,yaw_sp,u2,z,vz,tm,rollgain,pitchgain,gxgain,gygain,s0,s1,s2
0.0,   -0.00000, -0.00008,   0.43253, -1.24992, 1.00365,  0.00000,  	  0.00000, 0.00009,   0.34714, -0.73500, 1.00341,  0.00000,  	  112.60329, 60.00000, 0.00000,     	 0.01735, 0.21184,   25.21153,  0.20000, 0.20000,  0.10000, 0.10000,      3,3,2    
0.0,   -0.00000, 0.00003,   0.45050, -1.24992, 1.00287,  0.00000,  	  0.00000, 0.00002,   0.33448, -0.73500, 0.93405,  0.00000,  	  112.60329, 60.00000, 0.00000,     	 0.02724, 0.30974,   24.57387,  0.20000, 0.20000,  0.10000, 0.10000,      3,3,2    
0.0,   -0.00000, -0.00005,   0.45055, -1.24992, 1.00294,  0.00000,  	  0.00000, 0.00005,   0.33551, -0.73500, 0.96500,  0.00000,  	  112.60329, 60.00000, 0.00000,     	 0.03574, 0.37805,   24.11604,  0.20000, 0.20000,  0.10000, 0.10000,      3,3,2    
0.0,   -0.00000, -0.00006,   0.45057, -1.24992, 1.00301,  0.00000,  	  0.00000, 0.00006,   0.34756, -0.73500, 1.00303,  0.00000,  	  112.60329, 60.00000, 0.00000,     	 0.04510, 0.44988,   23.63123,  0.20000, 0.20000,  0.10000, 0.10000,      3,3,2    
0.1,   -0.00000, -0.00003,   0.45051, -1.24992, 1.00272,  0.00000,  	  0.00000, 0.00030,   0.34757, -0.73500, 1.00292,  0.00000,  	  112.60329, 60.00000, 0.00000,     	 0.05513, 0.51845,   23.15949,  0.20000, 0.20000,  0.10000, 0.10000,      3,3,2    
0.1,   -0.00000, 0.00023,   0.45139, -1.25379, 1.00321,  0.00000,  	  0.00001, -0.00008,   0.34872, -0.74082, 1.00286,  0.00000,  	  112.60348, 60.00000, 0.00000,     	 0.06122, 0.52957,   23.04689,  0.20000, 0.20000,  0.10000, 0.10000,      3,3,2    
0.1,   -0.00000, -0.00046,   0.05857, -1.25379, -1.00407,  0.00000,  	  0.00000, -0.00028,   -0.05149, -0.74082, -1.00327,  0.00000,  	  112.60348, 60.00000, 0.00000,     	 0.06576, 0.52189,   23.05270,  0.20000, 0.20000,  0.10000, 0.10000,      3,3,2    
0.1,   -0.00001, 0.00044,   0.04992, -1.25379, -1.00431,  0.00000,  	  0.00000, 0.00026,   0.32937, -0.74082, 1.00655,  0.00000,  	  112.60348, 60.00000, 0.00000,     	 0.06646, 0.46625,   23.36425,  0.20000, 0.20000,  0.10000, 0.10000,      3,3,2    
0.1,   -0.00001, -0.00018,   0.45149, -1.25379, 1.00903,  0.00000,  	  0.00001, 0.00063,   0.38626, -0.74082, 1.00416,  -0.00977,  	  112.60348, 60.00000, 0.00000,     	 0.07109, 0.46458,   23.33717,  0.20000, 0.20000,  0.10000, 0.10000,      3,3,2    
0.1,   -0.00001, 0.00030,   0.21194, -1.25379, -0.26056,  -0.00000,  	  0.00001, -0.00029,   0.28137, -0.74082, 1.00329,  0.01172,  	  112.60348, 60.00000, 0.00000,     	 0.07199, 0.41759,   23.59655,  0.20000, 0.20000,  0.10000, 0.10000,      3,3,2    
0.1,   -0.00001, -0.00021,   0.07156, -1.25575, -1.00365,  -0.00390,  	  0.00001, -0.00020,   -0.07644, -0.73130, -1.00348,  0.00391,  	  112.60910, 60.00000, 0.00000,     	 0.06851, 0.32076,   24.17570,  0.20000, 0.20000,  0.10000, 0.10000,      3,3,2    
0.1,   -0.00001, -0.00018,   0.45606, -1.25945, 1.00403,  -0.00391,  	  0.00001, -0.00010,   0.33719, -0.73714, 1.00462,  0.00195,  	  112.61315, 60.00000, 0.00000,     	 0.06702, 0.26225,   24.52215,  0.20000, 0.20000,  0.10000, 0.10000,      3,3,2    
0.1,   -0.00001, 0.00076,   -0.00726, -1.25945, -1.00386,  0.01171,  	  0.00001, 0.00009,   0.00829, -0.73714, -1.00572,  -0.00780,  	  112.61315, 60.00000, 0.00000,     	 0.06827, 0.24469,   24.61078,  0.20000, 0.20000,  0.10000, 0.10000,      3,3,2    
0.1,   0.00000, 0.00037,   0.32937, -1.25363, 0.62762,  0.00781,  	  0.00001, 0.00056,   -0.00822, -0.74102, -1.00588,  -0.00781,  	  112.61318, 60.00000, 0.00000,     	 0.06766, 0.20665,   24.83274,  0.20000, 0.20000,  0.10000, 0.10000,      3,3,2    
0.2,   0.00001, 0.00020,   0.46155, -1.25363, 1.00527,  -0.00195,  	  0.00001, 0.00028,   -0.04126, -0.74102, -1.00367,  -0.00195,  	  112.61318, 60.00000, 0.00000,     	 0.06757, 0.18001,   24.98558,  0.20000, 0.20000,  0.10000, 0.10000,      3,3,2    
0.2,   0.00000, -0.00028,   0.12669, -1.25945, -1.00538,  -0.00977,  	  0.00001, -0.00053,   0.26131, -0.73714, 1.00435,  0.01172,  	  112.61315, 60.00000, 0.00000,     	 0.06571, 0.13188,   25.27423,  0.20000, 0.20000,  0.10000, 0.10000,      3,3,2    
0.2,   0.00000, -0.00046,   0.11634, -1.26141, -1.00434,  -0.01171,  	  0.00001, -0.00057,   -0.07046, -0.72762, -1.00389,  0.00587,  	  112.61878, 60.00000, 0.00000,     	 0.06299, 0.08357,   25.57107,  0.20000, 0.20000,  0.10000, 0.10000,      3,3,2    
0.2,   0.00000, 0.00062,   0.00824, -1.26141, -1.00583,  0.00961,  	  0.00000, -0.00009,   0.30878, -0.72762, 1.00482,  0.00590,  	  112.61878, 60.00000, 0.00000,     	 0.06023, 0.03841,   25.85089,  0.20000, 0.20000,  0.10000, 0.10000,      3,3,2    
0.2,   0.00001, 0.00098,   0.36780, -1.26141, 1.00390,  0.01171,  	  0.00001, 0.00062,   -0.03384, -0.72762, -1.00654,  -0.00390,  	  112.61878, 60.00000, 0.00000,     	 0.05979, 0.02950,   25.90538,  0.20000, 0.20000,  0.10000, 0.10000,      3,3,2    
0.2,   0.00001, -0.00032,   0.42915, -1.25171, 1.00358,  0.00390,  	  0.00001, 0.00036,   -0.02541, -0.72567, -1.00441,  -0.00585,  	  112.61862, 60.00000, 0.00000,     	 0.05553, -0.02731,   26.26349,  0.20000, 0.20000,  0.10000, 0.10000,      3,3,2    
0.2,   0.00001, -0.00096,   0.10186, -1.25187, -1.00366,  -0.00586,  	  0.00001, -0.00038,   0.31337, -0.72547, 1.00379,  0.00585,  	  112.60891, 60.00000, 0.00000,     	 0.05369, -0.04713,   26.39097,  0.20000, 0.20000,  0.10000, 0.10000,      3,3,2    
0.2,   0.00001, 0.00019,   0.09537, -1.25767, -1.00438,  -0.00781,  	  0.00001, -0.00038,   0.31098, -0.72141, 1.00413,  0.00586,  	  112.60307, 60.00000, 0.00000,     	 0.05195, -0.06287,   26.49466,  0.20000, 0.20000,  0.10000, 0.10000,      3,3,2    
0.2,   0.00001, 0.00054,   0.01920, -1.25396, -1.00387,  0.00585,  	  0.00000, 0.00009,   0.25555, -0.71539, 0.69540,  0.00195,  	  112.59318, 60.00000, 0.00000,     	 0.05338, -0.03732,   26.33744,  0.20000, 0.20000,  0.10000, 0.10000,      3,3,2    
0.2,   0.00001, -0.00010,   0.32318, -1.24424, 1.00364,  0.02147,  	  0.00000, 0.00001,   -0.04839, -0.71326, -1.00548,  -0.00195,  	  112.58721, 60.00000, 0.00000,     	 0.04947, -0.08318,   26.63050,  0.20000, 0.20000,  0.10000, 0.10000,      3,3,2    
0.3,   0.00001, 0.00035,   0.40872, -1.23487, 1.00313,  0.00587,  	  0.00000, -0.00040,   0.28219, -0.71093, 1.00287,  0.00976,  	  112.56763, 60.00000, 0.00000,     	 0.04578, -0.11844,   26.86173,  0.20000, 0.20000,  0.10000, 0.10000,      3,3,2    
0.3,   0.00001, -0.00018,   0.03320, -1.23097, -1.00278,  0.00196,  	  0.00000, -0.00017,   -0.05989, -0.70493, -1.00308,  0.00000,  	  112.56163, 60.00000, 0.00000,     	 0.04231, -0.14855,   27.06024,  0.20000, 0.20000,  0.10000, 0.10000,      3,3,2    
0.3,   0.00001, -0.00029,   0.08956, -1.23099, -1.00353,  -0.00781,  	  -0.00000, 0.00002,   0.39431, -0.70510, 1.00330,  -0.00976,  	  112.56745, 60.00000, 0.00000,     	 0.04061, -0.15235,   27.09631,  0.20000, 0.20000,  0.10000, 0.10000,      3,3,2    
0.3,   0.00000, 0.00014,   0.07155, -1.23067, -1.00347,  -0.00391,  	  -0.00000, -0.00003,   0.34175, -0.70550, 1.00538,  0.00000,  	  112.58686, 60.00000, 0.00000,     	 0.03766, -0.16993,   27.22013,  0.20000, 0.20000,  0.10000, 0.10000,      3,3,2    
0.3,   0.00001, 0.00026,   0.06392, -1.23441, -0.91031,  -0.00000,  	  -0.00000, 0.00011,   -0.04534, -0.71170, -1.00376,  -0.00196,  	  112.60257, 60.00000, 0.00000,     	 0.03269, -0.21148,   27.49647,  0.20000, 0.20000,  0.10000, 0.10000,      3,3,2    
0.3,   0.00001, 0.00036,   0.37042, -1.23053, 0.96391,  0.01171,  	  -0.00000, 0.00005,   -0.03708, -0.70588, -1.00331,  -0.00391,  	  112.60240, 60.00000, 0.00000,     	 0.02891, -0.23140,   27.64109,  0.20000, 0.20000,  0.10000, 0.10000,      3,3,2    
0.3,   0.00001, -0.00054,   0.46585, -1.22875, 1.00369,  -0.00390,  	  -0.00000, 0.00013,   -0.03411, -0.71539, -1.00289,  -0.00391,  	  112.59289, 60.00000, 0.00000,     	 0.03086, -0.17615,   27.31110,  0.20000, 0.20000,  0.10000, 0.10000,      3,3,2    
0.3,   0.00001, -0.00051,   0.52330, -1.22889, 1.00498,  -0.01367,  	  0.00000, 0.00029,   0.01424, -0.71501, -0.95494,  -0.00781,  	  112.57736, 60.00000, 0.00000,     	 0.02995, -0.16301,   27.24382,  0.20000, 0.20000,  0.10000, 0.10000,      3,3,2    
0.3,   0.00000, -0.00030,   0.48380, -1.23857, 1.00424,  -0.00410,  	  0.00001, 0.00036,   0.40890, -0.71677, 1.00549,  -0.01172,  	  112.57170, 60.00000, 0.00000,     	 0.02699, -0.17975,   27.36365,  0.20000, 0.20000,  0.10000, 0.10000,      3,3,2    
0.3,   -0.00000, -0.00025,   0.44990, -1.23697, 1.00678,  -0.00000,  	  0.00002, 0.00115,   0.39213, -0.72626, 1.00552,  -0.00782,  	  112.55831, 60.00000, 0.00000,     	 0.02815, -0.13984,   27.12675,  0.20000, 0.20000,  0.10000, 0.10000,      3,3,2    
0.4,   -0.00000, 0.00027,   0.36079, -1.23323, 1.00889,  0.01914,  	  0.00004, 0.00167,   -0.05659, -0.72006, -1.00352,  0.02148,  	  112.54259, 60.00000, 0.00000,     	 0.02797, -0.11860,   27.00637,  0.20000, 0.20000,  0.10000, 0.10000,      3,3,2    
0.4,   0.00000, 0.00139,   0.31289, -1.21964, 1.00989,  0.02343,  	  0.00006, 0.00100,   -0.15039, -0.71212, -1.00724,  0.01563,  	  112.53643, 60.00000, 0.00000,     	 0.02953, -0.08007,   26.77428,  0.20000, 0.20000,  0.10000, 0.10000,      3,3,2    
0.4,   0.00002, 0.00067,   0.33066, -1.20622, 1.00944,  0.02129,  	  0.00008, 0.00075,   -0.09475, -0.70417, -1.00960,  0.00762,  	  112.52638, 60.00000, 0.00000,     	 0.03042, -0.05707,   26.63609,  0.20000, 0.20000,  0.10000, 0.10000,      3,3,2    
0.4,   0.00003, 0.00098,   0.31771, -1.19666, 1.00723,  0.01797,  	  0.00008, 0.00001,   -0.12770, -0.70186, -1.01071,  0.00996,  	  112.51071, 60.00000, 0.00000,     	 0.03213, -0.02866,   26.46048,  0.20000, 0.20000,  0.10000, 0.10000,      3,3,2    
0.4,   0.00004, 0.00055,   0.36857, -1.18338, 1.00357,  0.01172,  	  0.00008, -0.00017,   -0.06556, -0.69354, -1.00699,  0.00001,  	  112.48514, 60.00000, 0.00000,     	 0.03234, -0.02085,   26.41446,  0.20000, 0.20000,  0.10000, 0.10000,      3,3,2    
0.4,   0.00004, 0.00016,   -0.04134, -1.18024, -1.00618,  0.01719,  	  0.00007, -0.00026,   0.13189, -0.68640, -0.02878,  0.00156,  	  112.42478, 60.00000, 0.00000,     	 0.02952, -0.04994,   26.60239,  0.20000, 0.20000,  0.10000, 0.10000,      3,3,2    
0.4,   0.00005, 0.00149,   -0.14232, -1.16560, -1.00266,  0.03124,  	  0.00007, 0.00086,   0.02052, -0.68651, -1.00883,  -0.01561,  	  112.34312, 60.00000, 0.00000,     	 0.03300, 0.00505,   26.26112,  0.20000, 0.20000,  0.10000, 0.10000,      3,3,2    
0.4,   0.00005, 0.00087,   -0.19718, -1.14548, -1.00302,  0.04296,  	  0.00007, 0.00106,   0.02814, -0.69032, -1.00495,  -0.01563,  	  112.24788, 60.00000, 0.00000,     	 0.03266, 0.01263,   26.22085,  0.20000, 0.20000,  0.10000, 0.10000,      3,3,2    
0.4,   0.00005, -0.00032,   0.09338, -1.12027, 1.01484,  0.05858,  	  0.00009, 0.00059,   0.12557, -0.69644, -1.00765,  -0.03320,  	  112.08084, 60.00000, 0.00000,     	 0.03317, 0.03257,   26.10303,  0.20000, 0.20000,  0.10000, 0.10000,      3,3,2    
0.4,   0.00005, 0.00163,   -0.00231, -1.09020, 1.01454,  0.07421,  	  0.00010, 0.00225,   0.14762, -0.70509, -1.00814,  -0.03320,  	  111.84394, 60.00000, 0.00000,     	 0.03460, 0.06782,   25.89068,  0.20000, 0.20000,  0.10000, 0.10000,      3,3,2    
0.5,   0.00006, 0.00119,   -0.04537, -1.04963, 1.01318,  0.08008,  	  0.00012, 0.00306,   0.30706, -0.71975, -1.00910,  -0.06444,  	  111.51586, 60.00000, 0.00000,     	 0.03462, 0.08233,   25.80824,  0.20000, 0.20000,  0.10000, 0.10000,      3,3,2    
0.5,   0.00008, 0.00128,   0.01481, -1.01432, 1.03227,  0.06837,  	  0.00017, 0.00327,   0.40168, -0.73864, -1.01482,  -0.08007,  	  111.09858, 60.00000, 0.00000,     	 0.03549, 0.10390,   25.67862,  0.20000, 0.20000,  0.10000, 0.10000,      3,3,2    
0.5,   0.00011, 0.00336,   -0.01934, -0.98593, 1.03785,  0.06894,  	  0.00022, 0.00687,   0.61714, -0.77782, -1.01856,  -0.13125,  	  110.62560, 60.00000, 0.00000,     	 0.03948, 0.16229,   25.31465,  0.20000, 0.20000,  0.10000, 0.10000,      3,3,2    
0.5,   0.00014, 0.00171,   0.05365, -0.96109, 1.05336,  0.06055,  	  0.00030, 0.00975,   0.79791, -0.83148, -1.01494,  -0.14647,  	  110.08877, 60.00000, 0.00000,     	 0.04414, 0.22057,   24.94605,  0.20000, 0.20000,  0.10000, 0.10000,      3,3,2    
0.5,   0.00017, 0.00158,   0.08866, -0.94581, 1.05905,  0.05468,  	  0.00040, 0.01036,   0.90229, -0.89541, -1.01108,  -0.16210,  	  109.48232, 60.00000, 0.00000,     	 0.04784, 0.25660,   24.71157,  0.20000, 0.20000,  0.10000, 0.10000,      3,3,2    
0.5,   0.00019, 0.00072,   0.08878, -0.93044, 1.07797,  0.05469,  	  0.00051, 0.00647,   1.10518, -0.96839, -1.01069,  -0.19530,  	  108.82727, 60.00000, 0.00000,     	 0.04973, 0.26355,   24.65823,  0.20000, 0.20000,  0.10000, 0.10000,      3,3,2    
0.5,   0.00020, -0.00009,   0.08070, -0.91741, 1.05587,  0.05469,  	  0.00060, 0.01454,   1.35943, -1.06589, -1.00759,  -0.23631,  	  108.13204, 60.00000, 0.00000,     	 0.05295, 0.28666,   24.50285,  0.20000, 0.20000,  0.10000, 0.10000,      3,3,2    
0.5,   0.00020, -0.00056,   0.08439, -0.90989, 1.08395,  0.05469,  	  0.00074, 0.01554,   2.00748, -1.17706, 1.00164,  -0.27732,  	  107.33789, 60.00000, 0.00000,     	 0.05586, 0.29929,   24.41562,  0.20000, 0.20000,  0.10000, 0.10000,      3,3,2    
0.5,   0.00021, 0.00004,   0.00356, -0.90142, 1.11971,  0.07559,  	  0.00091, 0.01669,   2.16071, -1.30809, 1.00327,  -0.30391,  	  106.54140, 60.00000, 0.00000,     	 0.05918, 0.31171,   24.32014,  0.20000, 0.20000,  0.10000, 0.10000,      3,3,2    
0.5,   0.00021, -0.00040,   -0.00814, -0.89071, 1.09154,  0.07032,  	  0.00107, 0.01567,   2.25824, -1.44153, 1.00151,  -0.31054,  	  105.65389, 60.00000, 0.00000,     	 0.05982, 0.28908,   24.44555,  0.20000, 0.20000,  0.10000, 0.10000,      3,3,2    
0.6,   0.00021, -0.00169,   0.01954, -0.88331, 1.12891,  0.06643,  	  0.00127, 0.03063,   2.45842, -1.51501, 1.00458,  -0.34545,  	  105.18640, 60.00000, 0.00000,     	 0.06627, 0.34378,   24.08507,  0.20000, 0.20000,  0.10000, 0.10000,      3,3,2    
0.6,   0.00020, -0.00012,   -0.04788, -0.88405, 1.14909,  0.08008,  	  0.00154, 0.03243,   2.60364, -1.75608, 1.00592,  -0.35937,  	  103.69075, 60.00000, 0.00000,     	 0.07147, 0.37608,   23.86144,  0.20000, 0.20000,  0.10000, 0.10000,      3,3,2    
0.6,   0.00020, -0.00134,   0.05107, -0.89175, 1.16085,  0.06250,  	  0.00183, 0.03627,   2.71011, -1.93489, 1.00411,  -0.37109,  	  102.50989, 60.00000, 0.01063,     	 0.07692, 0.40634,   23.64674,  0.20000, 0.20000,  0.10000, 0.10000,      3,3,2    
0.6,   0.00019, -0.00013,   0.03132, -0.90191, 1.26807,  0.07031,  	  0.00223, 0.04025,   2.82528, -2.11503, 1.00602,  -0.38477,  	  101.39018, 60.00000, 0.01878,     	 0.08554, 0.46467,   23.24655,  0.20000, 0.20000,  0.10000, 0.10000,      3,3,2    
0.6,   0.00019, 0.00003,   0.03216, -0.91671, 1.25923,  0.07031,  	  0.00263, 0.04225,   2.91245, -2.28512, 1.00211,  -0.39453,  	  100.26590, 60.00000, 0.02643,     	 0.09337, 0.50568,   22.95103,  0.20000, 0.20000,  0.10000, 0.10000,      3,3,2    
0.6,   0.00020, 0.00034,   0.04909, -0.93377, 1.27386,  0.06836,  	  0.00305, 0.04136,   2.63829, -2.44677, -1.00648,  -0.40820,  	  99.21678, 60.00000, 0.03482,     	 0.09959, 0.51645,   22.83357,  0.20000, 0.20000,  0.10000, 0.10000,      3,3,2    
0.6,   0.00021, 0.00241,   0.02560, -0.96244, 1.34676,  0.07617,  	  0.00354, 0.04490,   2.59715, -2.63937, -1.01371,  -0.39649,  	  97.96674, 60.00000, 0.04195,     	 0.10795, 0.54770,   22.58715,  0.20000, 0.20000,  0.10000, 0.10000,      3,3,2    
0.6,   0.00024, 0.00200,   0.08026, -0.99173, 1.26789,  0.05742,  	  0.00396, 0.03114,   2.51970, -2.81631, -1.01892,  -0.37871,  	  96.70713, 60.00000, 0.05154,     	 0.10923, 0.48485,   22.93367,  0.20000, 0.20000,  0.10000, 0.10000,      3,3,2    
0.6,   0.00027, 0.00266,   0.12443, -1.03012, 1.27315,  0.05332,  	  0.00433, 0.04131,   2.53772, -2.96951, -1.01713,  -0.38203,  	  95.48790, 60.00000, 0.06228,     	 0.11432, 0.47917,   22.92509,  0.20000, 0.20000,  0.10000, 0.10000,      3,3,2    
0.6,   0.00029, 0.00285,   0.17148, -1.07914, 1.29277,  0.04922,  	  0.00475, 0.04278,   2.65574, -3.13506, -1.02102,  -0.39590,  	  94.18029, 60.00000, 0.07026,     	 0.11859, 0.46260,   22.98722,  0.20000, 0.20000,  0.10000, 0.10000,      3,3,2    
0.7,   0.00032, 0.00202,   0.25663, -1.13783, 1.33754,  0.04805,  	  0.00521, 0.03434,   2.66138, -3.30477, -1.02315,  -0.37598,  	  92.85411, 60.00000, 0.08040,     	 0.12051, 0.41863,   23.22245,  0.20000, 0.20000,  0.10000, 0.10000,      3,3,2    
0.7,   0.00035, 0.00387,   0.22807, -1.20472, 1.28618,  0.04688,  	  0.00560, 0.04078,   2.57861, -3.44999, -1.02523,  -0.36524,  	  91.56774, 60.00000, 0.08830,     	 0.12330, 0.39504,   23.33264,  0.20000, 0.20000,  0.10000, 0.10000,      3,3,2    
0.7,   0.00039, 0.00423,   0.24229, -1.23914, 1.26418,  0.04492,  	  0.00599, 0.04136,   2.55772, -3.52346, -1.02645,  -0.35938,  	  90.86777, 60.00000, 0.08994,     	 0.12473, 0.35941,   23.52382,  0.20000, 0.20000,  0.10000, 0.10000,      3,3,2    
0.7,   0.00043, 0.00698,   0.20210, -1.35704, 1.22170,  0.05469,  	  0.00635, 0.04152,   2.46974, -3.74423, -1.02583,  -0.33595,  	  88.66444, 60.00000, 0.09909,     	 0.12490, 0.31487,   23.77466,  0.20000, 0.20000,  0.10000, 0.10000,      3,3,2    
0.7,   0.00050, 0.00999,   0.16049, -1.42692, 1.26914,  0.06640,  	  0.00674, 0.04131,   2.37771, -3.86501, -1.04833,  -0.31642,  	  87.32316, 60.00000, 0.09926,     	 0.12765, 0.30739,   23.79326,  0.20000, 0.20000,  0.10000, 0.10000,      3,3,2    
0.7,   0.00060, 0.01220,   0.18033, -1.48273, 1.27304,  0.06446,  	  0.00714, 0.04410,   2.30285, -3.95935, -1.06433,  -0.30079,  	  86.13883, 60.00000, 0.09884,     	 0.13221, 0.32438,   23.65830,  0.20000, 0.20000,  0.10000, 0.10000,      3,3,2    
0.7,   0.00071, 0.01242,   0.16398, -1.56195, 1.26257,  0.07031,  	  0.00752, 0.03727,   2.23705, -4.07640, -1.06519,  -0.28516,  	  84.71742, 60.00000, 0.09942,     	 0.13394, 0.30395,   23.75957,  0.20000, 0.20000,  0.10000, 0.10000,      3,3,2    
0.7,   0.00083, 0.01580,   0.10441, -1.60971, 1.25659,  0.08379,  	  0.00788, 0.04017,   2.21549, -4.16148, -1.07826,  -0.26875,  	  83.59576, 60.00000, 0.09553,     	 0.13750, 0.31003,   23.69569,  0.20000, 0.20000,  0.10000, 0.10000,      3,3,2    
0.7,   0.00098, 0.01656,   0.04878, -1.66486, 1.24954,  0.09375,  	  0.00824, 0.03452,   2.08036, -4.25275, -1.08518,  -0.25020,  	  82.36002, 60.00000, 0.09286,     	 0.13907, 0.29221,   23.78231,  0.20000, 0.20000,  0.10000, 0.10000,      3,3,2    
0.7,   0.00114, 0.01726,   0.02496, -1.70954, 1.26130,  0.11191,  	  0.00857, 0.03143,   2.00230, -4.33594, -1.10878,  -0.22930,  	  81.17695, 60.00000, 0.08952,     	 0.14173, 0.28945,   23.77537,  0.20000, 0.20000,  0.10000, 0.10000,      3,3,2    
0.8,   0.00132, 0.02114,   -0.11450, -1.73994, 1.25060,  0.12499,  	  0.00889, 0.02963,   1.97608, -4.41281, -1.12715,  -0.23047,  	  80.11686, 60.00000, 0.08251,     	 0.14472, 0.29266,   23.73252,  0.20000, 0.20000,  0.10000, 0.10000,      3,3,2    
0.8,   0.00155, 0.02504,   -0.16889, -1.75668, 1.25399,  0.13476,  	  0.00919, 0.02907,   1.90322, -4.47319, -1.15969,  -0.21679,  	  79.13912, 60.00000, 0.07684,     	 0.14955, 0.31956,   23.53915,  0.20000, 0.20000,  0.10000, 0.10000,      3,3,2    
0.8,   0.00180, 0.02807,   -0.25630, -1.76111, 1.24055,  0.15390,  	  0.00948, 0.02845,   1.89819, -4.55028, -1.15900,  -0.20060,  	  78.17012, 60.00000, 0.07021,     	 0.15316, 0.33034,   23.44855,  0.20000, 0.20000,  0.10000, 0.10000,      3,3,2    
0.8,   0.00205, 0.02317,   -0.30107, -1.75741, 1.20791,  0.15801,  	  0.00973, 0.01962,   1.77884, -4.61494, -1.15772,  -0.18242,  	  77.26490, 60.00000, 0.06374,     	 0.15099, 0.26667,   23.82735,  0.20000, 0.20000,  0.10000, 0.10000,      3,3,2    
0.8,   0.00231, 0.02924,   -0.30640, -1.74078, 1.20594,  0.16504,  	  0.00994, 0.02148,   1.68541, -4.67325, -1.18247,  -0.17715,  	  76.42778, 60.00000, 0.05741,     	 0.15467, 0.28785,   23.67566,  0.20000, 0.20000,  0.10000, 0.10000,      3,3,2    
0.8,   0.00262, 0.03070,   -0.38722, -1.71226, 1.21182,  0.17695,  	  0.01016, 0.01893,   1.63786, -4.73490, -1.20901,  -0.16738,  	  75.65468, 60.00000, 0.04940,     	 0.15796, 0.29921,   23.58396,  0.20000, 0.20000,  0.10000, 0.10000,      3,3,2    
0.8,   0.00290, 0.03318,   -0.45776, -1.67861, 1.17372,  0.17969,  	  0.01034, 0.01942,   1.71568, -4.79029, -1.17745,  -0.17207,  	  74.98494, 60.00000, 0.04248,     	 0.15862, 0.27926,   23.69351,  0.20000, 0.20000,  0.10000, 0.10000,      3,3,2    
0.8,   0.00325, 0.03582,   -0.45035, -1.63795, 1.20314,  0.18477,  	  0.01054, 0.01991,   1.67696, -4.85385, -1.23044,  -0.16777,  	  74.38930, 60.00000, 0.03596,     	 0.16275, 0.30231,   23.52821,  0.20000, 0.20000,  0.10000, 0.10000,      3,3,2    
0.8,   0.00358, 0.02821,   -0.49690, -1.58359, 1.19068,  0.18359,  	  0.01073, 0.01527,   1.71196, -4.92473, -1.22476,  -0.16113,  	  73.79873, 60.00000, 0.02893,     	 0.16113, 0.24972,   23.84150,  0.20000, 0.20000,  0.10000, 0.10000,      3,3,2    
0.8,   0.00389, 0.03720,   -0.52053, -1.52454, 1.18279,  0.18555,  	  0.01089, 0.01704,   1.63933, -4.98924, -1.21889,  -0.14551,  	  73.29592, 60.00000, 0.02225,     	 0.16464, 0.27085,   23.69188,  0.20000, 0.20000,  0.10000, 0.10000,      3,3,2    
0.9,   0.00426, 0.03962,   -0.54466, -1.46348, 1.17858,  0.18574,  	  0.01105, 0.01416,   1.52565, -5.05541, -1.24603,  -0.12930,  	  72.84339, 60.00000, 0.01539,     	 0.16931, 0.30321,   23.46845,  0.20000, 0.20000,  0.10000, 0.10000,      3,3,2    
0.9,   0.00464, 0.03646,   -0.52954, -1.39736, 1.16137,  0.17637,  	  0.01118, 0.00985,   1.40245, -5.10361, -1.24985,  -0.10938,  	  72.44058, 60.00000, 0.00933,     	 0.17279, 0.31635,   23.36403,  0.20000, 0.20000,  0.10000, 0.10000,      3,3,2    
0.9,   0.00500, 0.03553,   -0.52296, -1.32738, 1.14438,  0.17070,  	  0.01127, 0.00676,   1.32068, -5.14397, -1.24667,  -0.08672,  	  72.09191, 60.00000, 0.00535,     	 0.17661, 0.33136,   23.24680,  0.20000, 0.20000,  0.10000, 0.10000,      3,3,2    
0.9,   0.00533, 0.03295,   -0.45365, -1.25959, 1.12572,  0.15859,  	  0.01133, 0.00404,   1.20761, -5.17985, -1.23007,  -0.06699,  	  71.78391, 60.00000, 0.00220,     	 0.17998, 0.33759,   23.18280,  0.20000, 0.20000,  0.10000, 0.10000,      3,3,2    
0.9,   0.00565, 0.03293,   -0.45488, -1.19963, 1.10907,  0.15488,  	  0.01136, 0.00121,   1.13386, -5.20544, -1.22450,  -0.04805,  	  71.48991, 60.00000, 0.00000,     	 0.18441, 0.35785,   23.03089,  0.20000, 0.20000,  0.10000, 0.10000,      3,3,2    
0.9,   0.00596, 0.02732,   -0.77636, -1.13689, -0.91349,  0.13770,  	  0.01136, -0.00029,   1.06752, -5.22209, -1.22620,  -0.02930,  	  71.22078, 60.00000, 0.00000,     	 0.18680, 0.34712,   23.07361,  0.20000, 0.20000,  0.10000, 0.10000,      3,3,2    
0.9,   0.00622, 0.02235,   -0.72993, -1.08234, -0.92367,  0.12402,  	  0.01135, -0.00338,   0.92032, -5.22766, -1.19719,  -0.00547,  	  70.95181, 60.00000, 0.00000,     	 0.18722, 0.31264,   23.26524,  0.20000, 0.20000,  0.10000, 0.10000,      3,3,2    
0.9,   0.00643, 0.01957,   -0.62162, -1.03912, -0.94232,  0.11133,  	  0.01130, -0.00741,   0.76730, -5.21660, -1.17414,  0.02539,  	  70.69855, 60.00000, 0.00000,     	 0.18957, 0.30986,   23.26059,  0.20000, 0.20000,  0.10000, 0.10000,      3,3,2    
0.9,   0.00661, 0.01514,   -0.52489, -1.00307, -0.97112,  0.08477,  	  0.01121, -0.01352,   0.54430, -5.19451, -1.16059,  0.06269,  	  70.46094, 60.00000, 0.00000,     	 0.19304, 0.31946,   23.17636,  0.20000, 0.20000,  0.10000, 0.10000,      3,3,2    
0.9,   0.00674, 0.01004,   -0.46471, -0.97769, -1.00223,  0.07129,  	  0.01106, -0.01871,   0.35020, -5.14579, -1.12519,  0.09414,  	  70.21762, 60.00000, 0.00000,     	 0.19606, 0.32046,   23.14536,  0.20000, 0.20000,  0.10000, 0.10000,      3,3,2    
1.0,   0.00682, 0.00494,   -0.37694, -0.96013, -1.04390,  0.04668,  	  0.01085, -0.02383,   0.17472, -5.08573, -1.10079,  0.12168,  	  69.97449, 60.00000, 0.00056,     	 0.20014, 0.33256,   23.04287,  0.20000, 0.20000,  0.10000, 0.10000,      3,3,2    
1.0,   0.00684, -0.00196,   -0.20389, -0.95394, -1.05725,  0.02598,  	  0.01060, -0.02549,   0.02046, -5.00848, -1.06466,  0.15234,  	  69.73737, 60.00000, 0.00237,     	 0.20143, 0.30847,   23.16914,  0.20000, 0.20000,  0.10000, 0.10000,      3,3,2    
1.0,   0.00679, -0.00877,   -0.09683, -0.96896, -1.09836,  -0.00234,  	  0.01031, -0.03328,   0.19617, -4.90213, 0.97870,  0.18945,  	  69.46970, 60.00000, 0.00395,     	 0.20610, 0.33010,   23.00817,  0.20000, 0.20000,  0.10000, 0.10000,      3,3,2    
1.0,   0.00668, -0.01383,   -0.01088, -0.97567, -1.14195,  -0.00742,  	  0.00995, -0.03634,   0.07882, -4.84918, 1.02768,  0.20371,  	  69.34845, 60.00000, 0.00437,     	 0.21026, 0.34330,   22.89918,  0.20000, 0.20000,  0.10000, 0.10000,      3,3,2    
1.0,   0.00651, -0.02436,   0.18493, -1.02944, -1.14881,  -0.03710,  	  0.00956, -0.04508,   -0.27211, -4.65333, 1.05546,  0.24803,  	  68.96603, 60.00000, 0.00717,     	 0.21317, 0.34037,   22.89263,  0.20000, 0.20000,  0.10000, 0.10000,      3,3,2    
1.0,   0.00624, -0.03501,   0.31132, -1.08198, -1.18463,  -0.06562,  	  0.00910, -0.05500,   -0.53898, -4.48931, 1.10236,  0.29980,  	  68.70851, 60.00000, 0.00742,     	 0.21715, 0.35058,   22.80322,  0.20000, 0.20000,  0.10000, 0.10000,      3,3,2    
1.0,   0.00588, -0.03867,   0.38236, -1.14452, -1.23858,  -0.07734,  	  0.00855, -0.05803,   -0.74806, -4.29741, 1.15741,  0.33457,  	  68.43121, 60.00000, 0.00904,     	 0.21984, 0.34224,   22.83009,  0.20000, 0.20000,  0.10000, 0.10000,      3,3,2    
1.0,   0.00547, -0.04643,   0.50545, -1.21327, -1.29420,  -0.09355,  	  0.00795, -0.06353,   -0.87465, -4.09388, 1.20415,  0.35020,  	  68.16926, 60.00000, 0.00865,     	 0.22431, 0.35515,   22.72141,  0.20000, 0.20000,  0.10000, 0.10000,      3,3,2    
1.0,   0.00498, -0.05017,   0.58289, -1.28432, -1.31909,  -0.11582,  	  0.00730, -0.06357,   -0.98757, -3.88485, 1.24242,  0.36035,  	  67.92653, 60.00000, 0.00755,     	 0.22747, 0.35147,   22.71776,  0.20000, 0.20000,  0.10000, 0.10000,      3,3,2    
1.0,   0.00446, -0.05502,   0.69305, -1.36744, -1.30814,  -0.12266,  	  0.00667, -0.06473,   -1.08185, -3.66809, 1.26689,  0.36660,  	  67.69935, 60.00000, 0.00575,     	 0.23013, 0.34060,   22.75929,  0.20000, 0.20000,  0.10000, 0.10000,      3,3,2    
1.1,   0.00389, -0.05714,   0.72597, -1.44910, -1.34210,  -0.12305,  	  0.00601, -0.06594,   -1.20422, -3.45162, 1.30583,  0.38398,  	  67.49126, 60.00000, 0.00291,     	 0.23306, 0.33701,   22.75720,  0.20000, 0.20000,  0.10000, 0.10000,      3,3,2    
1.1,   0.00331, -0.05904,   0.77095, -1.53301, -1.36072,  -0.13418,  	  0.00533, -0.06776,   -1.31427, -3.22995, 1.32078,  0.40098,  	  67.31196, 60.00000, 0.00000,     	 0.23550, 0.32571,   22.80295,  0.20000, 0.20000,  0.10000, 0.10000,      3,3,2    
1.1,   0.00270, -0.06495,   0.83560, -1.62532, -1.35693,  -0.13848,  	  0.00465, -0.07326,   -1.44222, -2.98086, 1.32513,  0.40410,  	  67.14354, 60.00000, 0.00000,     	 0.23749, 0.31017,   22.87694,  0.20000, 0.20000,  0.10000, 0.10000,      3,3,2    
1.1,   0.00206, -0.06474,   0.91162, -1.70940, -1.38527,  -0.15019,  	  0.00392, -0.07041,   -1.52470, -2.75453, 1.35495,  0.40664,  	  67.03529, 60.00000, 0.00000,     	 0.23828, 0.28179,   23.03354,  0.20000, 0.20000,  0.10000, 0.10000,      3,3,2    
1.1,   0.00140, -0.06991,   0.96555, -1.80196, -1.38441,  -0.15957,  	  0.00321, -0.07318,   -1.53037, -2.50154, 1.37022,  0.39883,  	  66.95147, 60.00000, 0.00000,     	 0.24024, 0.27236,   23.07182,  0.20000, 0.20000,  0.10000, 0.10000,      3,3,2    
1.1,   0.00070, -0.07120,   0.98417, -1.89322, -1.39584,  -0.17539,  	  0.00248, -0.07313,   -1.55595, -2.27501, 1.40401,  0.39863,  	  66.91257, 60.00000, 0.00000,     	 0.24256, 0.26724,   23.08250,  0.20000, 0.20000,  0.10000, 0.10000,      3,3,2    
1.1,   -0.00006, -0.07960,   1.15312, -1.99283, -1.41891,  -0.18340,  	  0.00174, -0.07287,   -1.54947, -2.04791, 1.45309,  0.39434,  	  66.92398, 60.00000, 0.00000,     	 0.24677, 0.28707,   22.93661,  0.20000, 0.20000,  0.10000, 0.10000,      3,3,2    
1.1,   -0.00087, -0.08398,   1.21824, -2.09722, -1.41910,  -0.19121,  	  0.00101, -0.07451,   -1.59815, -1.82620, 1.47656,  0.39277,  	  66.98573, 60.00000, 0.00000,     	 0.25128, 0.30796,   22.78214,  0.20000, 0.20000,  0.10000, 0.10000,      3,3,2    
1.1,   -0.00170, -0.08372,   1.24275, -2.20073, -1.41012,  -0.19121,  	  0.00028, -0.07321,   -1.62910, -1.60650, 1.48445,  0.38555,  	  67.10727, 60.00000, 0.00000,     	 0.25454, 0.31070,   22.74068,  0.20000, 0.20000,  0.10000, 0.10000,      3,3,2    
1.1,   -0.00253, -0.08093,   1.26104, -2.29811, -1.41690,  -0.19297,  	  -0.00044, -0.06977,   -1.59965, -1.40964, 1.50027,  0.37559,  	  67.26984, 60.00000, 0.00000,     	 0.25730, 0.30471,   22.75222,  0.20000, 0.20000,  0.10000, 0.10000,      3,3,2    
1.2,   -0.00335, -0.08638,   1.27329, -2.40259, -1.41001,  -0.18223,  	  -0.00113, -0.07294,   -1.57447, -1.20389, 1.49940,  0.36387,  	  67.50757, 60.00000, 0.00000,     	 0.26190, 0.32303,   22.61042,  0.20000, 0.20000,  0.10000, 0.10000,      3,3,2    
1.2,   -0.00421, -0.08725,   1.26130, -2.49186, -1.43733,  -0.17656,  	  -0.00187, -0.07466,   -1.53890, -1.02302, 1.52234,  0.34688,  	  67.78050, 60.00000, 0.00000,     	 0.26823, 0.36031,   22.34623,  0.20000, 0.20000,  0.10000, 0.10000,      3,3,2    
1.2,   -0.00502, -0.07857,   1.23186, -2.58505, -1.40169,  -0.17031,  	  -0.00256, -0.06765,   -1.45097, -0.83959, 1.48110,  0.32695,  	  68.13270, 60.00000, 0.00000,     	 0.27089, 0.34805,   22.39330,  0.20000, 0.20000,  0.10000, 0.10000,      3,3,2    
1.2,   -0.00577, -0.07336,   1.27192, -2.67498, -1.38966,  -0.16894,  	  -0.00321, -0.06140,   -1.41441, -0.68792, 1.47045,  0.31699,  	  68.49152, 60.00000, 0.00000,     	 0.27226, 0.31979,   22.54323,  0.20000, 0.20000,  0.10000, 0.10000,      3,3,2    
1.2,   -0.00651, -0.07514,   1.25638, -2.76342, -1.39607,  -0.17187,  	  -0.00383, -0.06225,   -1.34597, -0.52962, 1.48063,  0.29238,  	  68.91974, 60.00000, 0.00000,     	 0.27621, 0.32671,   22.47097,  0.20000, 0.20000,  0.10000, 0.10000,      3,3,2    
1.2,   -0.00728, -0.07963,   1.25500, -2.85650, -1.39426,  -0.16094,  	  -0.00445, -0.06471,   -1.28718, -0.39262, 1.50390,  0.28574,  	  69.37779, 60.00000, 0.00000,     	 0.28342, 0.37371,   22.14426,  0.20000, 0.20000,  0.10000, 0.10000,      3,3,2    
1.2,   -0.00805, -0.07688,   1.21457, -2.93867, -1.39634,  -0.16172,  	  -0.00508, -0.06414,   -1.22685, -0.27319, 1.49003,  0.27363,  	  69.82646, 60.00000, 0.00000,     	 0.28996, 0.40725,   21.89931,  0.20000, 0.20000,  0.10000, 0.10000,      3,3,2    
1.2,   -0.00882, -0.07440,   1.17664, -3.02178, -1.40636,  -0.13438,  	  -0.00572, -0.06308,   -1.18002, -0.15441, 1.50891,  0.25840,  	  70.27498, 60.00000, 0.00000,     	 0.29731, 0.44617,   21.61736,  0.20000, 0.20000,  0.10000, 0.10000,      3,3,2    
1.2,   -0.00952, -0.06544,   1.07660, -3.09221, -1.40527,  -0.12012,  	  -0.00634, -0.06146,   -1.16294, -0.04424, 1.46796,  0.25410,  	  70.73741, 60.00000, 0.00000,     	 0.30312, 0.46037,   21.48862,  0.20000, 0.20000,  0.10000, 0.10000,      3,3,2    
1.2,   -0.01015, -0.05671,   0.94726, -3.15379, -1.40336,  -0.09649,  	  -0.00695, -0.06233,   -1.20151, 0.06376, 1.43106,  0.25254,  	  71.19976, 60.00000, 0.00000,     	 0.30663, 0.44326,   21.55698,  0.20000, 0.20000,  0.10000, 0.10000,      3,3,2    
1.3,   -0.01070, -0.05203,   0.86207, -3.20880, -1.42615,  -0.07559,  	  -0.00758, -0.06507,   -1.19994, 0.18494, 1.39849,  0.24316,  	  71.66713, 60.00000, 0.00000,     	 0.31098, 0.43848,   21.54848,  0.20000, 0.20000,  0.10000, 0.10000,      3,3,2    
1.3,   -0.01118, -0.04316,   0.74746, -3.24315, -1.41806,  -0.05059,  	  -0.00821, -0.06316,   -1.18463, 0.28898, 1.35168,  0.23711,  	  72.08866, 60.00000, 0.00000,     	 0.31235, 0.39692,   21.77344,  0.20000, 0.20000,  0.10000, 0.10000,      3,3,2    
1.3,   -0.01159, -0.03621,   0.62656, -3.27437, -1.43417,  -0.02910,  	  -0.00885, -0.06386,   -1.13629, 0.38876, 1.31384,  0.23047,  	  72.46967, 60.00000, 0.00000,     	 0.31465, 0.37210,   21.89521,  0.20000, 0.20000,  0.10000, 0.10000,      3,3,2    
1.3,   -0.01193, -0.02911,   0.52158, -3.29306, -1.46778,  -0.01574,  	  -0.00951, -0.06248,   -1.12862, 0.53662, 1.28769,  0.22074,  	  72.96911, 60.00000, 0.00000,     	 0.31712, 0.35094,   21.99526,  0.20000, 0.20000,  0.10000, 0.10000,      3,3,2    
1.3,   -0.01221, -0.02642,   0.45939, -3.30355, -1.45488,  -0.00156,  	  -0.01016, -0.06704,   -1.12055, 0.59141, 1.25419,  0.21699,  	  73.13771, 60.00000, 0.00000,     	 0.32133, 0.35667,   21.92827,  0.20000, 0.20000,  0.10000, 0.10000,      3,3,2    
1.3,   -0.01246, -0.02055,   0.33238, -3.30022, -1.47812,  0.01553,  	  -0.01084, -0.06938,   -1.11161, 0.73447, 1.23096,  0.21096,  	  73.54207, 60.00000, 0.00000,     	 0.32647, 0.37414,   21.78668,  0.20000, 0.20000,  0.10000, 0.10000,      3,3,2    
1.3,   -0.01264, -0.01618,   0.26131, -3.29190, -1.48541,  0.02812,  	  -0.01153, -0.07033,   -1.13565, 0.78764, 1.20096,  0.20410,  	  73.67989, 60.00000, 0.00000,     	 0.33099, 0.38192,   21.70580,  0.20000, 0.20000,  0.10000, 0.10000,      3,3,2    
1.3,   -0.01278, -0.00668,   0.09139, -3.26615, -1.50426,  0.05268,  	  -0.01223, -0.06980,   -1.08359, 0.92549, 1.17725,  0.19342,  	  74.00895, 60.00000, 0.00000,     	 0.33640, 0.39796,   21.57006,  0.20000, 0.20000,  0.10000, 0.10000,      3,3,2    
1.3,   -0.01283, -0.00106,   0.03468, -3.23185, -1.51299,  0.06436,  	  -0.01294, -0.06771,   -1.07765, 1.02243, 1.12571,  0.18369,  	  74.21089, 60.00000, 0.00000,     	 0.34111, 0.40491,   21.49221,  0.20000, 0.20000,  0.10000, 0.10000,      3,3,2    
1.3,   -0.01282, 0.00353,   -0.01210, -3.21568, -1.48385,  0.05371,  	  -0.01360, -0.06300,   -1.36313, 1.06658, -0.91226,  0.16484,  	  74.29879, 60.00000, 0.00000,     	 0.34367, 0.38334,   21.59680,  0.20000, 0.20000,  0.10000, 0.10000,      3,3,2    
1.4,   -0.01280, 0.00048,   0.09891, -3.19011, -1.44854,  0.03945,  	  -0.01420, -0.05913,   -1.32932, 1.14142, -0.91379,  0.16191,  	  74.46108, 60.00000, 0.00000,     	 0.34719, 0.37957,   21.58934,  0.20000, 0.20000,  0.10000, 0.10000,      3,3,2    
1.4,   -0.01280, -0.00032,   0.10961, -3.16903, -1.44838,  0.03223,  	  -0.01478, -0.05627,   -0.92855, 1.22253, 1.10963,  0.14727,  	  74.60776, 60.00000, 0.00000,     	 0.35012, 0.36787,   21.62909,  0.20000, 0.20000,  0.10000, 0.10000,      3,3,2    
1.4,   -0.01281, -0.00367,   0.20633, -3.14017, -1.42841,  0.01764,  	  -0.01532, -0.05036,   -0.80119, 1.32622, 1.11683,  0.13281,  	  74.78860, 60.00000, 0.00000,     	 0.35479, 0.37901,   21.52738,  0.20000, 0.20000,  0.10000, 0.10000,      3,3,2    
1.4,   -0.01286, -0.00768,   0.29959, -3.14066, -1.40096,  0.00782,  	  -0.01580, -0.04449,   -0.76312, 1.35926, 1.13654,  0.12501,  	  74.83767, 60.00000, 0.00000,     	 0.35732, 0.36401,   21.59221,  0.20000, 0.20000,  0.10000, 0.10000,      3,3,2    
1.4,   -0.01294, -0.00588,   0.28122, -3.13359, -1.35008,  0.01366,  	  -0.01621, -0.03744,   -0.64638, 1.41370, 1.15200,  0.10352,  	  74.95037, 60.00000, 0.00000,     	 0.35934, 0.34247,   21.69798,  0.20000, 0.20000,  0.10000, 0.10000,      3,3,2    
1.4,   -0.01299, -0.00399,   0.25701, -3.12793, -1.34559,  0.01758,  	  -0.01658, -0.03601,   -0.63551, 1.45894, 1.13748,  0.09082,  	  75.04806, 60.00000, 0.00000,     	 0.36237, 0.33741,   21.70212,  0.20000, 0.20000,  0.10000, 0.10000,      3,3,2    
1.4,   -0.01302, -0.00287,   0.29016, -3.11977, -1.32628,  0.00785,  	  -0.01691, -0.02909,   -0.51673, 1.52261, 1.12205,  0.07037,  	  75.17579, 60.00000, 0.00000,     	 0.36416, 0.32063,   21.78283,  0.20000, 0.20000,  0.10000, 0.10000,      3,3,2    
1.4,   -0.01305, -0.00358,   0.32078, -3.11772, -1.28889,  0.01133,  	  -0.01718, -0.02463,   -0.45402, 1.54076, 1.12520,  0.06797,  	  75.21436, 60.00000, 0.00000,     	 0.36858, 0.33964,   21.63857,  0.20000, 0.20000,  0.10000, 0.10000,      3,3,2    
1.4,   -0.01308, -0.00410,   0.31918, -3.11429, -1.28953,  0.00430,  	  -0.01743, -0.02857,   -0.53387, 1.56788, 1.12118,  0.07109,  	  75.27348, 60.00000, 0.00000,     	 0.37476, 0.37728,   21.37450,  0.20000, 0.20000,  0.10000, 0.10000,      3,3,2    
1.4,   -0.01313, -0.00581,   0.36086, -3.10961, -1.29927,  -0.00527,  	  -0.01771, -0.02418,   -0.44311, 1.60545, 1.13881,  0.05527,  	  75.31686, 60.00000, 0.00000,     	 0.38032, 0.40204,   21.18823,  0.20000, 0.20000,  0.10000, 0.10000,      3,3,2    
1.5,   -0.01320, -0.00719,   0.40275, -3.11590, -1.26856,  -0.01289,  	  -0.01793, -0.01891,   -0.36744, 1.63421, 1.15142,  0.03281,  	  75.36604, 60.00000, 0.00000,     	 0.38602, 0.42596,   21.00574,  0.20000, 0.20000,  0.10000, 0.10000,      3,3,2    
1.5,   -0.01328, -0.00847,   0.46827, -3.12939, -1.22602,  -0.01949,  	  -0.01808, -0.00928,   -0.23421, 1.64898, 1.15683,  0.02344,  	  75.41444, 60.00000, 0.00000,     	 0.39409, 0.47599,   20.65541,  0.20000, 0.20000,  0.10000, 0.10000,      3,3,2    
1.5,   -0.01337, -0.00973,   0.51106, -3.14361, -1.18980,  -0.02729,  	  -0.01816, -0.00546,   -0.20138, 1.65478, 1.15888,  0.01758,  	  75.43927, 60.00000, 0.00000,     	 0.39760, 0.46347,   20.69834,  0.20000, 0.20000,  0.10000, 0.10000,      3,3,3    
1.5,   -0.01347, -0.01179,   0.55232, -3.16196, -1.17254,  -0.02928,  	  -0.01820, -0.00255,   -0.16737, 1.66713, 1.17311,  0.00979,  	  75.43863, 60.00000, 0.00000,     	 0.40123, 0.45337,   20.72656,  0.20000, 0.20000,  0.10000, 0.10000,      3,3,3    
1.5,   -0.01360, -0.01362,   0.58106, -3.17715, -1.15777,  -0.03318,  	  -0.01822, 0.00004,   -0.13120, 1.66448, 1.18641,  0.00199,  	  75.42876, 60.00000, 0.00000,     	 0.41024, 0.50950,   20.33397,  0.20000, 0.20000,  0.10000, 0.10000,      3,3,3    
1.5,   -0.01374, -0.01631,   1.04068, -3.19261, 0.86642,  -0.04121,  	  -0.01821, 0.00406,   -0.08443, 1.66172, 1.18971,  -0.00195,  	  75.42320, 60.00000, 0.00000,     	 0.41765, 0.53939,   20.10616,  0.20000, 0.20000,  0.10000, 0.10000,      3,3,3    
1.5,   -0.01391, -0.01645,   1.07600, -3.22837, 0.88300,  -0.04105,  	  -0.01816, 0.01071,   0.02707, 1.65382, 1.21014,  -0.01955,  	  75.36302, 60.00000, 0.00000,     	 0.42266, 0.53360,   20.09870,  0.20000, 0.20000,  0.10000, 0.10000,      3,3,3    
1.5,   -0.01407, -0.01676,   1.09048, -3.24356, 0.92942,  -0.04844,  	  -0.01804, 0.01297,   0.02305, 1.65184, 1.20757,  -0.03008,  	  75.33781, 60.00000, 0.00000,     	 0.43064, 0.56608,   19.84908,  0.20000, 0.20000,  0.10000, 0.10000,      3,3,3    
1.5,   -0.01425, -0.01951,   1.15686, -3.26941, 0.96003,  -0.05820,  	  -0.01788, 0.01843,   0.08354, 1.64246, 1.21947,  -0.02578,  	  75.28333, 60.00000, 0.00000,     	 0.43920, 0.60078,   19.58258,  0.20000, 0.20000,  0.10000, 0.10000,      3,3,3    
1.5,   -0.01446, -0.02187,   1.18794, -3.31740, 0.96208,  -0.06439,  	  -0.01770, 0.01834,   0.07829, 1.61731, 1.24051,  -0.03701,  	  75.19859, 60.00000, 0.00000,     	 0.44527, 0.60088,   19.53307,  0.20000, 0.20000,  0.10000, 0.10000,      3,3,3    
1.6,   -0.01469, -0.02367,   1.22384, -3.33801, 0.99106,  -0.06074,  	  -0.01749, 0.02125,   0.10971, 1.61149, 1.25660,  -0.03477,  	  75.16364, 60.00000, 0.00000,     	 0.45267, 0.61665,   19.38381,  0.20000, 0.20000,  0.10000, 0.10000,      3,3,3    
1.6,   -0.01493, -0.02152,   1.20894, -3.38707, 0.99458,  -0.05279,  	  -0.01727, 0.02338,   0.16711, 1.57674, 1.25861,  -0.05068,  	  75.07506, 60.00000, 0.00000,     	 0.45982, 0.62600,   19.27301,  0.20000, 0.20000,  0.10000, 0.10000,      3,3,3    
1.6,   -0.01513, -0.01957,   1.20664, -3.40344, 1.01609,  -0.05840,  	  -0.01702, 0.03238,   0.26573, 1.56539, 1.22956,  -0.06738,  	  75.04039, 60.00000, 0.00000,     	 0.46756, 0.64789,   19.08605,  0.20000, 0.20000,  0.10000, 0.10000,      3,3,3    
1.6,   -0.01532, -0.02265,   1.28960, -3.45968, 1.06962,  -0.06643,  	  -0.01667, 0.03709,   0.29908, 1.51651, 1.23014,  -0.06057,  	  74.95665, 60.00000, 0.00000,     	 0.47354, 0.64202,   19.07204,  0.20000, 0.20000,  0.10000, 0.10000,      3,3,3    
1.6,   -0.01555, -0.02039,   1.24854, -3.49404, 1.08245,  -0.05666,  	  -0.01630, 0.03579,   0.30956, 1.48326, 1.26083,  -0.06250,  	  74.90743, 60.00000, 0.00000,     	 0.48003, 0.64104,   19.02489,  0.20000, 0.20000,  0.10000, 0.10000,      3,3,3    
1.6,   -0.01575, -0.02088,   1.27465, -3.52816, 1.08182,  -0.06830,  	  -0.01594, 0.03700,   0.31317, 1.45017, 1.23839,  -0.06637,  	  74.85398, 60.00000, 0.00000,     	 0.48705, 0.64559,   18.94249,  0.20000, 0.20000,  0.10000, 0.10000,      3,3,3    
1.6,   -0.01597, -0.02213,   1.29926, -3.56391, 1.10162,  -0.07025,  	  -0.01556, 0.04150,   0.36759, 1.40783, 1.26090,  -0.07611,  	  74.78981, 60.00000, 0.00000,     	 0.49455, 0.65513,   18.82768,  0.20000, 0.20000,  0.10000, 0.10000,      3,3,3    
1.6,   -0.01620, -0.02588,   1.39875, -3.60923, 1.13208,  -0.08008,  	  -0.01512, 0.04941,   0.46332, 1.36699, 1.26354,  -0.08787,  	  74.72128, 60.00000, 0.00000,     	 0.50024, 0.64040,   18.86659,  0.20000, 0.20000,  0.10000, 0.10000,      3,3,3    
1.6,   -0.01645, -0.02606,   1.43924, -3.65570, 1.16680,  -0.08592,  	  -0.01462, 0.05807,   0.57530, 1.31722, 1.27830,  -0.09771,  	  74.63354, 60.00000, 0.00000,     	 0.50418, 0.60598,   19.03135,  0.20000, 0.20000,  0.10000, 0.10000,      3,3,3    
1.6,   -0.01671, -0.02732,   1.47258, -3.70373, 1.22035,  -0.08594,  	  -0.01403, 0.06017,   0.59142, 1.25797, 1.29086,  -0.10158,  	  74.54071, 60.00000, 0.00000,     	 0.50871, 0.58207,   19.13101,  0.20000, 0.20000,  0.10000, 0.10000,      3,3,3    
1.7,   -0.01699, -0.02634,   1.47543, -3.72719, 1.24493,  -0.08574,  	  -0.01343, 0.06067,   0.61579, 1.23342, 1.29925,  -0.10019,  	  74.49128, 60.00000, 0.00000,     	 0.51308, 0.55684,   19.23932,  0.20000, 0.20000,  0.10000, 0.10000,      3,3,3    
1.7,   -0.01726, -0.02828,   1.49530, -3.80274, 1.23863,  -0.08400,  	  -0.01283, 0.06070,   0.59348, 1.15597, 1.29662,  -0.09574,  	  74.33476, 60.00000, 0.00000,     	 0.51733, 0.53409,   19.33442,  0.20000, 0.20000,  0.10000, 0.10000,      3,3,3    
1.7,   -0.01754, -0.02864,   1.49376, -3.84987, 1.23928,  -0.08012,  	  -0.01224, 0.05764,   0.56097, 1.10705, 1.30291,  -0.09373,  	  74.23600, 60.00000, 0.00000,     	 0.52149, 0.51206,   19.42594,  0.20000, 0.20000,  0.10000, 0.10000,      3,3,3    
1.7,   -0.01781, -0.02387,   1.42665, -3.86789, 1.23696,  -0.06680,  	  -0.01167, 0.05528,   0.55849, 1.08685, 1.30064,  -0.09863,  	  74.18645, 60.00000, 0.00000,     	 0.52557, 0.49148,   19.50923,  0.20000, 0.20000,  0.10000, 0.10000,      3,3,3    
1.7,   -0.01803, -0.01778,   1.37942, -3.90501, 1.25092,  -0.06055,  	  -0.01109, 0.06137,   0.63771, 1.03612, 1.26832,  -0.09385,  	  74.09902, 60.00000, 0.00000,     	 0.53189, 0.50356,   19.38882,  0.20000, 0.20000,  0.10000, 0.10000,      3,3,3    
1.7,   -0.01821, -0.01734,   1.39537, -3.95647, 1.24283,  -0.05283,  	  -0.01050, 0.05662,   0.60094, 0.95788, 1.24753,  -0.09764,  	  74.00169, 60.00000, 0.00000,     	 0.53430, 0.46279,   19.60120,  0.20000, 0.20000,  0.10000, 0.10000,      3,3,3    
1.7,   -0.01836, -0.01318,   1.34706, -3.97561, 1.25127,  -0.04395,  	  -0.00993, 0.05730,   0.60911, 0.92739, 1.22971,  -0.09570,  	  73.96385, 60.00000, 0.00000,     	 0.53903, 0.45836,   19.58732,  0.20000, 0.20000,  0.10000, 0.10000,      3,3,3    
1.7,   -0.01846, -0.00699,   1.27407, -4.01181, 1.24854,  -0.03520,  	  -0.00937, 0.05478,   0.60248, 0.85255, 1.20374,  -0.09182,  	  73.85666, 60.00000, 0.00000,     	 0.54299, 0.44249,   19.64465,  0.20000, 0.20000,  0.10000, 0.10000,      3,3,3    
1.7,   -0.01852, -0.00406,   1.24172, -4.02039, 1.23479,  -0.02969,  	  -0.00883, 0.05320,   0.58516, 0.83015, 1.18002,  -0.09160,  	  73.82690, 60.00000, 0.00000,     	 0.54773, 0.43894,   19.62564,  0.20000, 0.20000,  0.10000, 0.10000,      3,3,3    
1.7,   -0.01854, -0.00247,   1.24542, -4.04245, 1.24183,  -0.02617,  	  -0.00829, 0.05562,   0.61228, 0.78125, 1.16181,  -0.09199,  	  73.76477, 60.00000, 0.00000,     	 0.55400, 0.45530,   19.48285,  0.20000, 0.20000,  0.10000, 0.10000,      3,3,3    
1.8,   -0.01855, 0.00237,   1.17509, -4.05524, 1.25149,  -0.01777,  	  -0.00774, 0.05151,   0.58890, 0.73105, 1.15211,  -0.08965,  	  73.70132, 60.00000, 0.00000,     	 0.55944, 0.45900,   19.41704,  0.20000, 0.20000,  0.10000, 0.10000,      3,3,3    
1.8,   -0.01851, 0.00445,   1.16118, -4.07170, 1.23570,  -0.01178,  	  -0.00723, 0.05018,   0.19297, 0.65225, -0.87970,  -0.08982,  	  73.62104, 60.00000, 0.00000,     	 0.56333, 0.44208,   19.48088,  0.20000, 0.20000,  0.10000, 0.10000,      3,3,3    
1.8,   -0.01845, 0.00908,   1.09563, -4.07040, 1.23000,  -0.00059,  	  -0.00674, 0.04687,   0.16817, 0.62819, -0.89342,  -0.08027,  	  73.59696, 60.00000, 0.00000,     	 0.56649, 0.41859,   19.58858,  0.20000, 0.20000,  0.10000, 0.10000,      3,3,3    
1.8,   -0.01834, 0.01293,   1.04463, -4.07214, 1.20310,  0.01549,  	  -0.00629, 0.04235,   0.15710, 0.58474, -0.92378,  -0.07428,  	  73.56821, 60.00000, 0.00000,     	 0.56818, 0.37658,   19.81388,  0.20000, 0.20000,  0.10000, 0.10000,      3,3,3    
1.8,   -0.01817, 0.02107,   0.93873, -4.06921, 1.17566,  0.02129,  	  -0.00589, 0.03542,   0.09471, 0.53394, -0.96145,  -0.07715,  	  73.57625, 60.00000, 0.00000,     	 0.57076, 0.35033,   19.94175,  0.20000, 0.20000,  0.10000, 0.10000,      3,3,3    
1.8,   -0.01794, 0.02572,   0.88023, -4.04415, 1.17426,  0.03703,  	  -0.00553, 0.03273,   0.07620, 0.46513, -0.99285,  -0.07219,  	  73.57947, 60.00000, 0.00000,     	 0.57347, 0.32822,   20.04539,  0.20000, 0.20000,  0.10000, 0.10000,      3,3,3    
1.8,   -0.01765, 0.03246,   0.82317, -4.02041, 1.14637,  0.03711,  	  -0.00520, 0.03644,   0.17096, 0.42206, -1.03251,  -0.08203,  	  73.57165, 60.00000, 0.00000,     	 0.57482, 0.29220,   20.23939,  0.20000, 0.20000,  0.10000, 0.10000,      3,3,3    
1.8,   -0.01731, 0.03517,   0.80525, -4.00927, 1.18589,  0.04277,  	  -0.00482, 0.03765,   0.16853, 0.39538, -1.05845,  -0.08184,  	  73.57290, 60.00000, 0.00000,     	 0.57790, 0.28077,   20.27936,  0.20000, 0.20000,  0.10000, 0.10000,      3,3,3    
1.8,   -0.01694, 0.03947,   0.76668, -3.97020, 1.18331,  0.04881,  	  -0.00444, 0.03970,   0.21833, 0.32000, -1.07404,  -0.08016,  	  73.56653, 60.00000, 0.00000,     	 0.57891, 0.24477,   20.47616,  0.20000, 0.20000,  0.10000, 0.10000,      3,3,3    
1.8,   -0.01654, 0.04164,   0.69584, -3.95903, 1.18086,  0.05859,  	  -0.00407, 0.02992,   0.10645, 0.29379, -1.09928,  -0.06817,  	  73.55791, 60.00000, 0.00000,     	 0.57868, 0.19915,   20.73725,  0.20000, 0.20000,  0.10000, 0.10000,      3,3,3    
1.9,   -0.01610, 0.04367,   0.65571, -3.90738, 1.13809,  0.06830,  	  -0.00378, 0.02283,   0.04084, 0.23663, -1.12332,  -0.05469,  	  73.55059, 60.00000, 0.00000,     	 0.58036, 0.18117,   20.82585,  0.20000, 0.20000,  0.10000, 0.10000,      3,3,3    
1.9,   -0.01564, 0.04877,   0.59319, -3.88502, 1.08959,  0.08437,  	  -0.00357, 0.01957,   0.04194, 0.21881, -1.13795,  -0.05469,  	  73.54152, 60.00000, 0.00000,     	 0.58242, 0.17190,   20.86177,  0.20000, 0.20000,  0.10000, 0.10000,      3,3,3    
1.9,   -0.01511, 0.05682,   0.45841, -3.83472, 1.07373,  0.08406,  	  -0.00339, 0.01289,   -0.00508, 0.18737, -1.19549,  -0.04688,  	  73.52315, 60.00000, 0.00000,     	 0.58329, 0.14695,   20.99629,  0.20000, 0.20000,  0.10000, 0.10000,      3,3,3    
1.9,   -0.01454, 0.06101,   0.43240, -3.75633, 1.04821,  0.09375,  	  -0.00326, 0.01406,   0.02863, 0.14070, -1.20383,  -0.04113,  	  73.53054, 60.00000, 0.00000,     	 0.58612, 0.15093,   20.95060,  0.20000, 0.20000,  0.10000, 0.10000,      3,3,3    
1.9,   -0.01393, 0.06069,   0.40558, -3.73257, 1.03118,  0.09219,  	  -0.00315, 0.00629,   -0.05957, 0.13269, -1.23537,  -0.03711,  	  73.52098, 60.00000, 0.00000,     	 0.58781, 0.14263,   20.98422,  0.20000, 0.20000,  0.10000, 0.10000,      3,3,3    
1.9,   -0.01333, 0.06377,   0.35910, -3.67669, 1.01041,  0.10508,  	  -0.00309, 0.00691,   -0.02341, 0.10541, -1.23158,  -0.03594,  	  73.50234, 60.00000, 0.00000,     	 0.58992, 0.14011,   20.98128,  0.20000, 0.20000,  0.10000, 0.10000,      3,3,3    
1.9,   -0.01268, 0.06792,   0.28808, -3.58731, 0.99734,  0.10746,  	  -0.00305, 0.00188,   -0.06682, 0.06781, -1.26298,  -0.03516,  	  73.49374, 60.00000, 0.00000,     	 0.59020, 0.11430,   21.12588,  0.20000, 0.20000,  0.10000, 0.10000,      3,3,3    
1.9,   -0.01201, 0.06905,   0.26150, -3.52025, 0.98890,  0.10748,  	  -0.00303, -0.00098,   -0.09967, 0.04889, -1.28729,  -0.03316,  	  73.47461, 60.00000, 0.00000,     	 0.59172, 0.10822,   21.14812,  0.20000, 0.20000,  0.10000, 0.10000,      3,3,3    
1.9,   -0.01132, 0.06877,   -0.00090, -3.49232, -0.17201,  0.11699,  	  -0.00304, 0.00092,   -0.05578, 0.03523, -1.29903,  -0.03008,  	  73.46525, 60.00000, 0.00000,     	 0.59140, 0.07552,   21.33669,  0.20000, 0.20000,  0.10000, 0.10000,      3,3,3    
1.9,   -0.01062, 0.06922,   -0.16343, -3.39174, -1.03841,  0.12104,  	  -0.00305, -0.00180,   -0.08874, 0.00723, -1.32016,  -0.03512,  	  73.42668, 60.00000, 0.00000,     	 0.59010, 0.03650,   21.56954,  0.20000, 0.20000,  0.10000, 0.10000,      3,3,3    
2.0,   -0.00990, 0.07365,   -0.20707, -3.35843, -1.03209,  0.12246,  	  -0.00306, -0.00013,   -0.06597, -0.00205, -1.33952,  -0.03340,  	  73.41146, 60.00000, 0.00000,     	 0.59096, 0.03096,   21.59415,  0.20000, 0.20000,  0.10000, 0.10000,      3,3,3    
2.0,   -0.00914, 0.07681,   -0.27519, -3.28721, -1.03551,  0.12889,  	  -0.00307, -0.00318,   -0.08721, -0.02626, -1.36138,  -0.03125,  	  73.38265, 60.00000, 0.00000,     	 0.59163, 0.02270,   21.63583,  0.20000, 0.20000,  0.10000, 0.10000,      3,3,3    
2.0,   -0.00836, 0.08100,   -0.33734, -3.21020, -1.04878,  0.13301,  	  -0.00311, -0.00617,   -0.10833, -0.04731, -1.37883,  -0.02734,  	  73.37885, 60.00000, 0.00000,     	 0.59216, 0.01566,   21.67183,  0.20000, 0.20000,  0.10000, 0.10000,      3,3,3    
2.0,   -0.00756, 0.08407,   -0.37819, -3.09428, -1.06678,  0.13480,  	  -0.00318, -0.00644,   -0.08732, -0.07389, -1.38725,  -0.03125,  	  73.36938, 60.00000, 0.00000,     	 0.59180, -0.00053,   21.76698,  0.20000, 0.20000,  0.10000, 0.10000,      3,3,3    
2.0,   -0.00672, 0.08480,   -0.38237, -3.06077, -1.06060,  0.13848,  	  -0.00324, -0.00494,   -0.07738, -0.08342, -1.41744,  -0.03496,  	  73.35974, 60.00000, 0.00000,     	 0.59287, 0.00079,   21.75085,  0.20000, 0.20000,  0.10000, 0.10000,      3,3,3    
2.0,   -0.00587, 0.08849,   -0.46265, -2.93486, -1.05129,  0.14844,  	  -0.00328, -0.00791,   -0.10725, -0.11203, -1.43703,  -0.03701,  	  73.36563, 60.00000, 0.00000,     	 0.59301, -0.01132,   21.81890,  0.20000, 0.20000,  0.10000, 0.10000,      3,3,3    
2.0,   -0.00497, 0.09334,   -0.52673, -2.88738, -1.06007,  0.16398,  	  -0.00335, -0.00629,   -0.06731, -0.12899, -1.47518,  -0.04289,  	  73.36594, 60.00000, 0.00000,     	 0.59227, -0.03222,   21.94406,  0.20000, 0.20000,  0.10000, 0.10000,      3,3,3    
2.0,   -0.00400, 0.10230,   -0.61236, -2.75267, -1.05441,  0.16023,  	  -0.00340, -0.00389,   -0.02781, -0.17025, -1.52889,  -0.04490,  	  73.41272, 60.00000, 0.00000,     	 0.59223, -0.04217,   22.00144,  0.20000, 0.20000,  0.10000, 0.10000,      3,3,3    
2.0,   -0.00297, 0.10739,   -0.64820, -2.70516, -1.04392,  0.17363,  	  -0.00343, 0.00055,   0.03682, -0.18755, -1.55227,  -0.05644,  	  73.42279, 60.00000, 0.00000,     	 0.59364, -0.03025,   21.92225,  0.20000, 0.20000,  0.10000, 0.10000,      3,3,3    
2.0,   -0.00188, 0.11281,   -0.31081, -2.60017, 0.98616,  0.17793,  	  -0.00341, 0.00494,   0.09066, -0.22371, -1.60295,  -0.06621,  	  73.44846, 60.00000, 0.00000,     	 0.59343, -0.04098,   21.98398,  0.20000, 0.20000,  0.10000, 0.10000,      3,3,3    
2.1,   -0.00076, 0.11234,   -0.32653, -2.44419, 1.01324,  0.18936,  	  -0.00335, 0.00656,   0.09644, -0.29397, -1.63613,  -0.07025,  	  73.53081, 60.00000, 0.00000,     	 0.59240, -0.06083,   22.10541,  0.20000, 0.20000,  0.10000, 0.10000,      3,3,3    
2.1,   0.00041, 0.11610,   -0.35998, -2.34032, 1.01970,  0.18357,  	  -0.00328, 0.00961,   0.14095, -0.34025, -1.67995,  -0.07227,  	  73.57204, 60.00000, 0.00000,     	 0.59212, -0.06754,   22.14597,  0.20000, 0.20000,  0.10000, 0.10000,      3,3,3    
2.1,   0.00156, 0.11950,   -0.39970, -2.27860, 1.03173,  0.18730,  	  -0.00318, 0.01222,   0.18613, -0.36461, -1.66017,  -0.07988,  	  73.58769, 60.00000, 0.00000,     	 0.59110, -0.08086,   22.23025,  0.20000, 0.20000,  0.10000, 0.10000,      3,3,3    
2.1,   0.00276, 0.11893,   -0.41621, -2.18028, 1.05526,  0.19082,  	  -0.00305, 0.01471,   0.21080, -0.41496, -1.70642,  -0.07324,  	  73.62896, 60.00000, 0.00000,     	 0.59009, -0.09362,   22.31113,  0.20000, 0.20000,  0.10000, 0.10000,      3,3,3    
2.1,   0.00397, 0.12697,   -0.50679, -2.01022, 1.04182,  0.19920,  	  -0.00292, 0.01415,   0.22640, -0.49181, -1.72512,  -0.07045,  	  73.71501, 60.00000, 0.00000,     	 0.59143, -0.07478,   22.19334,  0.20000, 0.20000,  0.10000, 0.10000,      3,3,3    
2.1,   0.00524, 0.13237,   -0.59670, -1.94841, 1.03360,  0.22058,  	  -0.00281, 0.00829,   0.17282, -0.51633, -1.77218,  -0.07228,  	  73.74030, 60.00000, 0.00000,     	 0.59349, -0.04902,   22.03022,  0.20000, 0.20000,  0.10000, 0.10000,      3,3,3    
2.1,   0.00661, 0.14016,   -0.68659, -1.81884, 1.01288,  0.22402,  	  -0.00274, 0.00598,   0.16805, -0.56177, -1.84554,  -0.07949,  	  73.81581, 60.00000, 0.00000,     	 0.59549, -0.02423,   21.87327,  0.20000, 0.20000,  0.10000, 0.10000,      3,3,3    
2.1,   0.00804, 0.14669,   -0.75259, -1.69529, 1.02553,  0.22850,  	  -0.00267, 0.00787,   0.19285, -0.61048, -1.88727,  -0.08586,  	  73.86057, 60.00000, 0.00000,     	 0.59817, 0.00646,   21.67709,  0.20000, 0.20000,  0.10000, 0.10000,      3,3,3    
2.1,   0.00951, 0.14571,   -0.79917, -1.55720, 1.04291,  0.23047,  	  -0.00257, 0.01255,   0.26121, -0.66679, -1.92663,  -0.09512,  	  73.93605, 60.00000, 0.00000,     	 0.59917, 0.01018,   21.64813,  0.20000, 0.20000,  0.10000, 0.10000,      3,3,3    
2.1,   0.01100, 0.14986,   -0.80914, -1.34869, 1.07589,  0.23045,  	  -0.00242, 0.01562,   0.28243, -0.75830, -1.94909,  -0.09373,  	  74.03656, 60.00000, 0.00000,     	 0.60160, 0.03311,   21.49796,  0.20000, 0.20000,  0.10000, 0.10000,      3,3,3    
2.2,   0.01249, 0.14744,   -0.84616, -1.22515, 1.07708,  0.22467,  	  -0.00227, 0.01312,   0.25836, -0.80610, -1.95720,  -0.09367,  	  74.06131, 60.00000, 0.00000,     	 0.60235, 0.03411,   21.48634,  0.20000, 0.20000,  0.10000, 0.10000,      3,3,3    
2.2,   0.01399, 0.14976,   -0.85962, -1.09268, 1.08128,  0.23045,  	  -0.00211, 0.01599,   0.29755, -0.86575, -1.97969,  -0.08793,  	  74.12106, 60.00000, 0.00000,     	 0.60604, 0.07207,   21.24048,  0.20000, 0.20000,  0.10000, 0.10000,      3,3,3    
2.2,   0.01549, 0.15267,   -0.90067, -1.02659, 1.06796,  0.22871,  	  -0.00196, 0.01697,   0.32697, -0.89519, -1.98795,  -0.09570,  	  74.13619, 60.00000, 0.00000,     	 0.60876, 0.09478,   21.08935,  0.20000, 0.20000,  0.10000, 0.10000,      3,3,3    
2.2,   0.01701, 0.14782,   -0.87971, -0.83230, 1.09121,  0.22652,  	  -0.00178, 0.01885,   0.33814, -0.97839, -2.00395,  -0.09377,  	  74.20512, 60.00000, 0.00000,     	 0.61051, 0.10246,   21.03134,  0.20000, 0.20000,  0.10000, 0.10000,      3,3,3    
2.2,   0.01848, 0.14638,   -0.92564, -0.76633, 1.09159,  0.22076,  	  -0.00160, 0.01740,   0.33975, -1.00770, -1.99336,  -0.08795,  	  74.21452, 60.00000, 0.00000,     	 0.61054, 0.08713,   21.11873,  0.20000, 0.20000,  0.10000, 0.10000,      3,3,3    
2.2,   0.01992, 0.13952,   -0.89992, -0.57064, 1.08067,  0.21680,  	  -0.00144, 0.01150,   0.26621, -1.08045, -1.97657,  -0.07619,  	  74.26885, 60.00000, 0.00000,     	 0.60967, 0.06332,   21.26101,  0.20000, 0.20000,  0.10000, 0.10000,      3,3,3    
2.2,   0.02129, 0.13380,   -0.90944, -0.50887, 1.04512,  0.19936,  	  -0.00134, 0.00760,   0.24561, -1.10412, -1.95115,  -0.07613,  	  74.27811, 60.00000, 0.00000,     	 0.60721, 0.02195,   21.51659,  0.20000, 0.20000,  0.10000, 0.10000,      3,3,3    
2.2,   0.02259, 0.12619,   -0.85279, -0.33300, 1.05107,  0.19535,  	  -0.00125, 0.01173,   0.29540, -1.17375, -1.91068,  -0.07619,  	  74.31701, 60.00000, 0.00000,     	 0.60474, -0.01501,   21.74681,  0.20000, 0.20000,  0.10000, 0.10000,      3,3,3    
2.2,   0.02382, 0.12123,   -0.83042, -0.27543, 1.05944,  0.18613,  	  -0.00113, 0.00849,   0.24519, -1.19180, -1.88271,  -0.06992,  	  74.32613, 60.00000, 0.00000,     	 0.60159, -0.05529,   22.00152,  0.20000, 0.20000,  0.10000, 0.10000,      3,3,3    
2.2,   0.02502, 0.12020,   -0.85094, -0.16599, 1.05019,  0.18613,  	  -0.00104, 0.00731,   0.24102, -1.23194, -1.88152,  -0.06621,  	  74.33471, 60.00000, 0.00000,     	 0.60082, -0.06117,   22.04138,  0.20000, 0.20000,  0.10000, 0.10000,      3,3,3    
2.3,   0.02619, 0.11307,   -0.77909, -0.00934, 1.03756,  0.17963,  	  -0.00096, 0.01270,   0.30484, -1.29895, -1.86449,  -0.07229,  	  74.39310, 60.00000, 0.00000,     	 0.59785, -0.09330,   22.24811,  0.20000, 0.20000,  0.10000, 0.10000,      3,3,3    
2.3,   0.02732, 0.11226,   -0.78140, 0.09502, 1.06772,  0.16221,  	  -0.00083, 0.01522,   0.32577, -1.34350, -1.86787,  -0.08197,  	  74.42679, 60.00000, 0.00000,     	 0.59655, -0.10113,   22.30324,  0.20000, 0.20000,  0.10000, 0.10000,      3,3,3    
2.3,   0.02842, 0.10751,   -0.73534, 0.14164, 1.10833,  0.16211,  	  -0.00065, 0.02157,   0.38436, -1.36990, -1.84788,  -0.08398,  	  74.44163, 60.00000, 0.00000,     	 0.59614, -0.09683,   22.28202,  0.20000, 0.20000,  0.10000, 0.10000,      3,3,3    
2.3,   0.02945, 0.09790,   -0.66124, 0.27815, 1.13326,  0.14262,  	  -0.00042, 0.02522,   0.41438, -1.44421, -1.80713,  -0.09367,  	  74.53929, 60.00000, 0.00000,     	 0.59204, -0.13807,   22.54981,  0.20000, 0.20000,  0.10000, 0.10000,      3,3,3    
2.3,   0.03041, 0.09407,   -0.61548, 0.31941, 1.16782,  0.12617,  	  -0.00014, 0.03186,   0.48288, -1.47490, -1.79628,  -0.09570,  	  74.56399, 60.00000, 0.00000,     	 0.59046, -0.14366,   22.59441,  0.20000, 0.20000,  0.10000, 0.10000,      3,3,3    
2.3,   0.03132, 0.08405,   -0.53422, 0.43012, 1.19657,  0.11916,  	  0.00019, 0.03648,   0.53460, -1.56049, -1.75815,  -0.09769,  	  74.68718, 60.00000, 0.00000,     	 0.58754, -0.16498,   22.73937,  0.20000, 0.20000,  0.10000, 0.10000,      3,3,3    
2.3,   0.03214, 0.07782,   -0.50147, 0.46606, 1.21205,  0.10801,  	  0.00055, 0.03679,   0.54373, -1.59543, -1.72468,  -0.09961,  	  74.72174, 60.00000, 0.00000,     	 0.58260, -0.20796,   23.02409,  0.20000, 0.20000,  0.10000, 0.10000,      3,3,3    
2.3,   0.03290, 0.07321,   -0.46677, 0.56219, 1.22476,  0.09387,  	  0.00093, 0.03873,   0.56206, -1.68381, -1.69074,  -0.10734,  	  74.87020, 60.00000, 0.00000,     	 0.57804, -0.23909,   23.23827,  0.20000, 0.20000,  0.10000, 0.10000,      3,3,3    
2.3,   0.03361, 0.06489,   -0.38176, 0.59416, 1.26666,  0.08984,  	  0.00135, 0.04132,   0.57006, -1.71320, -1.67429,  -0.10117,  	  74.91453, 60.00000, 0.00000,     	 0.57540, -0.24220,   23.27708,  0.20000, 0.20000,  0.10000, 0.10000,      3,3,3    
2.3,   0.03426, 0.06078,   -0.32798, 0.67564, 1.26373,  0.07813,  	  0.00178, 0.04483,   0.61509, -1.80439, -1.65661,  -0.10545,  	  75.08273, 60.00000, 0.00000,     	 0.57389, -0.23212,   23.23197,  0.20000, 0.20000,  0.10000, 0.10000,      3,3,3    
2.4,   0.03484, 0.05579,   -0.31018, 0.69806, 1.27903,  0.07422,  	  0.00224, 0.04719,   0.64884, -1.83234, -1.60674,  -0.09773,  	  75.13275, 60.00000, 0.00000,     	 0.56969, -0.25525,   23.39789,  0.20000, 0.20000,  0.10000, 0.10000,      3,3,3    
