time,x,vx,u0,roll,roll_sp,gx,y,vy,u1,pitch,pitch_sp,gy,yaw,yaw_sp,u2,z,vz,tm,rollgain,pitchgain,gxgain,gygain,s0,s1,s2
-6.0,   0.00000, 0.00003,   0.26421, -1.22297, 0.00000,  -0.00585,  	  -0.00000, -0.00001,   0.11188, -0.53289, 0.00000,  -0.00195,  	  100.20179, 60.00000, 0.00000,     	 0.00077, 0.01002,   25.68416,  0.20000, 0.20000,  0.10000, 0.10000,      3,3,3    
0.0,   -0.00000, -0.00010,   0.06435, -1.22834, -1.00304,  -0.00195,  	  -0.00000, 0.00010,   0.21287, -0.52840, 0.47798,  -0.00390,  	  100.20174, 60.00000, 0.00000,     	 0.00986, 0.12268,   25.77880,  0.20000, 0.20000,  0.10000, 0.10000,      3,3,3    
0.0,   -0.00000, -0.00024,   0.26134, -1.22834, -0.05272,  -0.00390,  	  0.00000, 0.00023,   0.33737, -0.52840, 1.00303,  -0.00585,  	  100.20174, 60.00000, 0.00000,     	 0.01784, 0.20852,   25.22591,  0.20000, 0.20000,  0.10000, 0.10000,      3,3,3    
0.0,   -0.00000, 0.00001,   0.44582, -1.22834, 1.00309,  -0.00000,  	  0.00000, 0.00002,   0.30630, -0.52840, 1.00272,  -0.00000,  	  100.20174, 60.00000, 0.00000,     	 0.02228, 0.23719,   25.02711,  0.20000, 0.20000,  0.10000, 0.10000,      3,3,3    
0.0,   -0.00000, 0.00017,   0.41562, -1.22834, 1.00377,  0.00585,  	  0.00000, 0.00009,   0.30561, -0.52840, 1.00374,  -0.00000,  	  100.20174, 60.00000, 0.00000,     	 0.02859, 0.28610,   24.69737,  0.20000, 0.20000,  0.10000, 0.10000,      3,3,3    
0.1,   -0.00000, 0.00000,   0.42451, -1.22309, 1.00340,  0.00390,  	  0.00000, -0.00010,   -0.09846, -0.53267, -0.92529,  0.00390,  	  100.19193, 60.00000, 0.00000,     	 0.03363, 0.31399,   24.49747,  0.20000, 0.20000,  0.10000, 0.10000,      3,3,3    
0.1,   0.00000, 0.00043,   0.04098, -1.22846, -1.00336,  -0.00332,  	  0.00000, -0.00028,   -0.14873, -0.52819, -1.00271,  0.00801,  	  100.19189, 60.00000, 0.00000,     	 0.03967, 0.35074,   24.23869,  0.20000, 0.20000,  0.10000, 0.10000,      3,3,3    
0.1,   0.00000, -0.00016,   0.07731, -1.22846, -1.00669,  -0.00586,  	  -0.00000, -0.00033,   -0.10797, -0.52819, -1.00335,  0.00196,  	  100.19189, 60.00000, 0.00000,     	 0.04358, 0.35594,   24.17735,  0.20000, 0.20000,  0.10000, 0.10000,      3,3,3    
0.1,   -0.00000, -0.00025,   0.05583, -1.22846, -1.00274,  -0.00195,  	  -0.00000, 0.00018,   0.37007, -0.52819, 1.00332,  -0.01171,  	  100.19189, 60.00000, 0.00000,     	 0.04465, 0.32371,   24.35268,  0.20000, 0.20000,  0.10000, 0.10000,      3,3,3    
0.1,   -0.00000, 0.00018,   0.40072, -1.22309, 1.00301,  0.00781,  	  -0.00000, 0.00059,   0.38318, -0.53267, 1.00283,  -0.01366,  	  100.19193, 60.00000, 0.00000,     	 0.04681, 0.31046,   24.41127,  0.20000, 0.20000,  0.10000, 0.10000,      3,3,3    
0.1,   0.00000, 0.00039,   0.44403, -1.22309, 1.00580,  -0.00352,  	  0.00000, -0.00029,   -0.14549, -0.53267, -1.00330,  0.01328,  	  100.19193, 60.00000, 0.00000,     	 0.05004, 0.31213,   24.37527,  0.20000, 0.20000,  0.10000, 0.10000,      3,3,3    
0.1,   0.00000, -0.00066,   0.12017, -1.22846, -1.00976,  -0.01366,  	  -0.00001, -0.00075,   -0.10995, -0.52819, -1.00546,  0.00196,  	  100.19189, 60.00000, 0.00000,     	 0.05353, 0.31542,   24.32748,  0.20000, 0.20000,  0.10000, 0.10000,      3,3,3    
0.1,   -0.00000, -0.00096,   0.04728, -1.22846, -1.00369,  -0.00001,  	  -0.00001, 0.00000,   0.10004, -0.52819, 0.09648,  0.00586,  	  100.19189, 60.00000, 0.00000,     	 0.05196, 0.25502,   24.68410,  0.20000, 0.20000,  0.10000, 0.10000,      3,3,3    
0.1,   -0.00000, 0.00058,   0.39426, -1.22846, 1.00436,  0.00410,  	  -0.00001, 0.00048,   0.37241, -0.52819, 1.00420,  -0.00645,  	  100.19189, 60.00000, 0.00000,     	 0.05468, 0.25719,   24.65086,  0.20000, 0.20000,  0.10000, 0.10000,      3,3,3    
0.1,   0.00000, 0.00077,   0.42393, -1.22758, 1.00406,  0.00742,  	  -0.00001, 0.00030,   -0.05861, -0.53804, -1.00405,  0.00117,  	  100.19209, 60.00000, 0.00000,     	 0.05318, 0.20540,   24.95736,  0.20000, 0.20000,  0.10000, 0.10000,      3,3,3    
0.2,   0.00001, -0.00001,   0.44306, -1.22309, 1.00307,  -0.00176,  	  -0.00001, -0.00021,   -0.11593, -0.53267, -1.00401,  0.00566,  	  100.19193, 60.00000, 0.00000,     	 0.05604, 0.21520,   24.87857,  0.20000, 0.20000,  0.10000, 0.10000,      3,3,3    
0.2,   -0.00000, -0.00039,   0.08887, -1.22846, -1.00392,  -0.00781,  	  -0.00001, -0.00016,   0.22299, -0.52819, 1.00603,  0.00820,  	  100.19189, 60.00000, 0.00000,     	 0.05550, 0.18164,   25.07348,  0.20000, 0.20000,  0.10000, 0.10000,      3,3,3    
0.2,   -0.00000, -0.00018,   0.06819, -1.22846, -1.00517,  -0.00391,  	  -0.00001, -0.00020,   0.32509, -0.52819, 1.00289,  -0.00918,  	  100.19189, 60.00000, 0.00000,     	 0.05627, 0.16863,   25.14151,  0.20000, 0.20000,  0.10000, 0.10000,      3,3,3    
0.2,   0.00000, 0.00062,   0.36032, -1.22846, 0.98555,  0.01172,  	  -0.00001, 0.00058,   -0.02975, -0.52819, -1.00351,  -0.00254,  	  100.19189, 60.00000, 0.00000,     	 0.05454, 0.12604,   25.39817,  0.20000, 0.20000,  0.10000, 0.10000,      3,3,3    
0.2,   0.00000, 0.00018,   0.39967, -1.22309, 1.00500,  0.01133,  	  -0.00000, 0.00015,   0.30916, -0.53267, 1.00394,  -0.00039,  	  100.19193, 60.00000, 0.00000,     	 0.05420, 0.10584,   25.51640,  0.20000, 0.20000,  0.10000, 0.10000,      3,3,3    
0.2,   0.00000, 0.00010,   0.05958, -1.21785, -1.00372,  -0.00703,  	  -0.00001, -0.00024,   -0.10291, -0.53695, -1.00318,  0.00723,  	  100.18211, 60.00000, 0.00000,     	 0.05375, 0.08752,   25.62344,  0.20000, 0.20000,  0.10000, 0.10000,      3,3,3    
0.2,   -0.00000, -0.00060,   0.10995, -1.22321, -1.00306,  -0.00293,  	  -0.00001, -0.00044,   0.23187, -0.53246, 1.00369,  0.00449,  	  100.18207, 60.00000, 0.00000,     	 0.05016, 0.03266,   25.96506,  0.20000, 0.20000,  0.10000, 0.10000,      3,3,3    
0.2,   -0.00000, 0.00037,   0.01307, -1.22393, -1.00294,  0.00234,  	  -0.00001, -0.00016,   -0.10921, -0.52265, -1.00378,  0.00586,  	  100.18635, 60.00000, 0.00000,     	 0.04435, -0.04406,   26.44882,  0.20000, 0.20000,  0.10000, 0.10000,      3,3,3    
0.2,   0.00001, 0.00057,   -0.03189, -1.21861, -1.00348,  0.00840,  	  -0.00001, -0.00000,   -0.06572, -0.52730, -1.00682,  -0.00586,  	  100.19176, 60.00000, 0.00000,     	 0.04174, -0.07299,   26.63459,  0.20000, 0.20000,  0.10000, 0.10000,      3,3,3    
0.2,   0.00001, 0.00083,   0.39023, -1.21861, 1.00405,  0.00410,  	  -0.00001, 0.00032,   0.30916, -0.52730, 1.00435,  0.00312,  	  100.19176, 60.00000, 0.00000,     	 0.04005, -0.08666,   26.72725,  0.20000, 0.20000,  0.10000, 0.10000,      3,3,3    
0.3,   0.00001, -0.00018,   0.07040, -1.20871, -1.00415,  -0.00019,  	  -0.00001, -0.00039,   0.25401, -0.52625, 1.00403,  0.00234,  	  100.18627, 60.00000, 0.00000,     	 0.03927, -0.08486,   26.72247,  0.20000, 0.20000,  0.10000, 0.10000,      3,3,3    
0.3,   0.00001, 0.00009,   0.05286, -1.21412, -1.00319,  -0.00020,  	  -0.00001, 0.00025,   -0.13049, -0.52193, -1.00601,  0.00449,  	  100.19159, 60.00000, 0.00000,     	 0.03483, -0.12590,   26.99195,  0.20000, 0.20000,  0.10000, 0.10000,      3,3,3    
0.3,   0.00001, -0.00010,   0.30898, -1.21388, 0.24486,  -0.00020,  	  -0.00001, 0.00014,   -0.06546, -0.52236, -1.00307,  -0.00586,  	  100.21131, 60.00000, 0.00000,     	 0.03303, -0.12230,   26.98631,  0.20000, 0.20000,  0.10000, 0.10000,      3,3,3    
0.3,   0.00002, 0.00039,   0.40132, -1.21376, 1.00714,  0.01309,  	  0.00000, 0.00112,   0.03365, -0.52258, -0.39774,  0.01055,  	  100.22118, 60.00000, 0.00000,     	 0.03306, -0.09620,   26.83772,  0.20000, 0.20000,  0.10000, 0.10000,      3,3,3    
0.3,   0.00003, 0.00082,   0.38559, -1.20396, 1.00879,  0.01328,  	  0.00002, 0.00041,   -0.18515, -0.52186, -1.00864,  0.02441,  	  100.22641, 60.00000, 0.00000,     	 0.03406, -0.06599,   26.65773,  0.20000, 0.20000,  0.10000, 0.10000,      3,3,3    
0.3,   0.00003, 0.00104,   0.30872, -1.19559, 1.00470,  0.03223,  	  0.00003, -0.00051,   -0.28837, -0.50152, -1.00497,  0.03496,  	  100.24022, 60.00000, 0.00000,     	 0.03286, -0.07548,   26.72142,  0.20000, 0.20000,  0.10000, 0.10000,      3,3,3    
0.3,   0.00004, 0.00156,   -0.22915, -1.17659, -1.00598,  0.05566,  	  0.00002, -0.00095,   -0.30488, -0.49047, -1.00819,  0.02988,  	  100.26485, 60.00000, 0.00000,     	 0.03477, -0.04883,   26.55407,  0.20000, 0.20000,  0.10000, 0.10000,      3,3,3    
0.3,   0.00004, 0.00116,   -0.32821, -1.14291, -1.00364,  0.06953,  	  0.00002, -0.00013,   -0.20068, -0.47378, -1.00915,  0.00508,  	  100.31880, 60.00000, 0.00000,     	 0.03438, -0.04873,   26.55662,  0.20000, 0.20000,  0.10000, 0.10000,      3,3,3    
0.3,   0.00004, 0.00153,   -0.08612, -1.10256, 1.00470,  0.08066,  	  0.00003, 0.00121,   -0.11948, -0.47237, -1.01012,  -0.01211,  	  100.41780, 60.00000, 0.00000,     	 0.03557, -0.02501,   26.41149,  0.20000, 0.20000,  0.10000, 0.10000,      3,3,3    
0.3,   0.00002, 0.00033,   -0.03656, -1.05019, 1.00737,  0.08691,  	  0.00003, 0.00140,   0.49569, -0.49030, 1.00887,  -0.04609,  	  100.54665, 60.00000, 0.00000,     	 0.03532, -0.01492,   26.35707,  0.20000, 0.20000,  0.10000, 0.10000,      3,3,3    
0.4,   0.00002, 0.00047,   -0.14352, -0.99674, 1.01398,  0.09219,  	  0.00005, 0.00212,   0.12777, -0.51816, -1.01359,  -0.03731,  	  100.68552, 60.00000, 0.00000,     	 0.03441, -0.01516,   26.36478,  0.20000, 0.20000,  0.10000, 0.10000,      3,3,3    
0.4,   0.00003, 0.00138,   -0.08058, -0.94286, 1.01749,  0.08555,  	  0.00008, 0.00219,   0.09838, -0.54645, -1.01114,  -0.03496,  	  100.85393, 60.00000, 0.00000,     	 0.03518, 0.00596,   26.23827,  0.20000, 0.20000,  0.10000, 0.10000,      3,3,3    
0.4,   0.00005, 0.00400,   -0.07824, -0.89448, 1.01553,  0.06426,  	  0.00010, 0.00317,   0.10078, -0.57026, -1.02024,  -0.02441,  	  101.02320, 60.00000, 0.00000,     	 0.03830, 0.05210,   25.95022,  0.20000, 0.20000,  0.10000, 0.10000,      3,3,3    
0.4,   0.00007, 0.00287,   0.04583, -0.84575, 1.01437,  0.05313,  	  0.00013, 0.00213,   -0.00281, -0.59413, -1.01369,  -0.00313,  	  101.20677, 60.00000, 0.00000,     	 0.04061, 0.08584,   25.73937,  0.20000, 0.20000,  0.10000, 0.10000,      3,3,3    
0.4,   0.00010, 0.00261,   0.09427, -0.81333, 1.00856,  0.03809,  	  0.00014, -0.00007,   -0.09283, -0.60452, -1.01900,  0.00898,  	  101.38576, 60.00000, 0.00000,     	 0.04208, 0.10231,   25.63372,  0.20000, 0.20000,  0.10000, 0.10000,      3,3,3    
0.4,   0.00012, 0.00067,   -0.12763, -0.79146, -1.00416,  0.01035,  	  0.00013, -0.00060,   -0.23251, -0.60632, -1.01137,  0.03789,  	  101.58441, 60.00000, 0.00000,     	 0.04346, 0.11453,   25.55312,  0.20000, 0.20000,  0.10000, 0.10000,      3,3,3    
0.4,   0.00013, 0.00031,   -0.04849, -0.78155, -1.01016,  -0.01055,  	  0.00012, -0.00127,   -0.40319, -0.58905, -1.00956,  0.06191,  	  101.76756, 60.00000, 0.00000,     	 0.04245, 0.09553,   25.66992,  0.20000, 0.20000,  0.10000, 0.10000,      3,3,3    
0.4,   0.00013, -0.00015,   0.09548, -0.78805, -1.01733,  -0.03418,  	  0.00009, -0.00335,   -0.47879, -0.55883, -1.00413,  0.08945,  	  101.96151, 60.00000, 0.00000,     	 0.04372, 0.10669,   25.59635,  0.20000, 0.20000,  0.10000, 0.10000,      3,3,3    
0.4,   0.00012, -0.00077,   0.25212, -0.80656, -1.03008,  -0.06504,  	  0.00005, -0.00474,   -0.32950, -0.50985, 1.00547,  0.12012,  	  102.14980, 60.00000, 0.00000,     	 0.04563, 0.12176,   25.49476,  0.20000, 0.20000,  0.10000, 0.10000,      3,3,3    
0.4,   0.00012, -0.00153,   0.40755, -0.83612, -1.01671,  -0.09219,  	  0.00001, -0.00565,   -0.41293, -0.45216, 1.00272,  0.12832,  	  102.33799, 60.00000, 0.00000,     	 0.04437, 0.09559,   25.65465,  0.20000, 0.20000,  0.10000, 0.10000,      3,3,3    
0.5,   0.00011, -0.00094,   0.53771, -0.88650, -1.04074,  -0.11367,  	  -0.00004, -0.00256,   -0.53214, -0.38708, 1.01455,  0.15137,  	  102.53604, 60.00000, 0.00000,     	 0.04302, 0.06742,   25.82702,  0.20000, 0.20000,  0.10000, 0.10000,      3,3,3    
0.5,   0.00009, -0.00306,   0.73900, -0.95350, -1.03515,  -0.14336,  	  -0.00009, -0.00682,   -0.60716, -0.30907, 1.01698,  0.14707,  	  102.73392, 60.00000, 0.00000,     	 0.04317, 0.06344,   25.84979,  0.20000, 0.20000,  0.10000, 0.10000,      3,3,3    
0.5,   0.00006, -0.00510,   0.87766, -1.03058, -1.04494,  -0.16484,  	  -0.00016, -0.00805,   -0.55621, -0.23290, 1.02133,  0.15117,  	  102.95258, 60.00000, 0.00000,     	 0.04403, 0.06954,   25.80871,  0.20000, 0.20000,  0.10000, 0.10000,      3,3,3    
0.5,   -0.00000, -0.00566,   1.00677, -1.12297, -1.05358,  -0.18262,  	  -0.00024, -0.00787,   -0.71866, -0.15442, 1.03803,  0.16973,  	  103.20070, 60.00000, 0.00000,     	 0.04478, 0.06853,   25.81022,  0.20000, 0.20000,  0.10000, 0.10000,      3,3,3    
0.5,   -0.00007, -0.00878,   1.07308, -1.22111, -1.05816,  -0.19043,  	  -0.00033, -0.01332,   -0.78252, -0.07222, 1.03952,  0.17402,  	  103.45849, 60.00000, 0.00000,     	 0.04772, 0.09897,   25.61384,  0.20000, 0.20000,  0.10000, 0.10000,      3,3,3    
0.5,   -0.00016, -0.00886,   1.13504, -1.33050, -1.08051,  -0.20176,  	  -0.00046, -0.01280,   -0.78790, 0.01719, 1.05436,  0.17207,  	  103.75648, 60.00000, 0.00000,     	 0.05047, 0.12126,   25.46523,  0.20000, 0.20000,  0.10000, 0.10000,      3,3,3    
0.5,   -0.00024, -0.00832,   1.26720, -1.43469, -1.07117,  -0.21074,  	  -0.00058, -0.01113,   -0.80468, 0.10127, 1.05150,  0.17383,  	  104.07409, 60.00000, 0.00000,     	 0.05146, 0.11759,   25.47944,  0.20000, 0.20000,  0.10000, 0.10000,      3,3,3    
0.5,   -0.00033, -0.00924,   1.28201, -1.55471, -1.07653,  -0.20703,  	  -0.00069, -0.01280,   -0.86373, 0.18702, 1.05720,  0.18867,  	  104.42224, 60.00000, 0.00000,     	 0.05378, 0.12822,   25.40063,  0.20000, 0.20000,  0.10000, 0.10000,      3,3,3    
0.5,   -0.00042, -0.00781,   1.28200, -1.66515, -1.07506,  -0.21016,  	  -0.00081, -0.01132,   -0.93930, 0.27271, 1.05194,  0.18437,  	  104.79413, 60.00000, 0.00000,     	 0.05433, 0.11757,   25.45732,  0.20000, 0.20000,  0.10000, 0.10000,      3,3,3    
0.5,   -0.00050, -0.00972,   1.42520, -1.79167, -1.07411,  -0.23340,  	  -0.00092, -0.01370,   -0.93361, 0.35960, 1.05400,  0.17695,  	  105.20212, 60.00000, 0.00000,     	 0.05546, 0.11640,   25.45629,  0.20000, 0.20000,  0.10000, 0.10000,      3,3,3    
0.6,   -0.00060, -0.00868,   1.44316, -1.91185, -1.08845,  -0.22267,  	  -0.00105, -0.01168,   -0.85894, 0.43200, 1.06550,  0.17188,  	  105.59498, 60.00000, 0.00000,     	 0.05640, 0.11154,   25.47598,  0.20000, 0.20000,  0.10000, 0.10000,      3,3,3    
0.6,   -0.00070, -0.01514,   1.48815, -2.04225, -1.08066,  -0.21602,  	  -0.00118, -0.01838,   -0.78378, 0.50116, 1.06209,  0.15098,  	  106.02279, 60.00000, 0.00000,     	 0.06100, 0.15667,   25.18170,  0.20000, 0.20000,  0.10000, 0.10000,      3,3,3    
0.6,   -0.00082, -0.01112,   1.46774, -2.16779, -1.08407,  -0.20996,  	  -0.00132, -0.01302,   -0.69698, 0.56557, 1.06661,  0.13340,  	  106.43659, 60.00000, 0.00000,     	 0.06225, 0.15454,   25.18302,  0.20000, 0.20000,  0.10000, 0.10000,      3,3,3    
0.6,   -0.00090, -0.00711,   1.44163, -2.29229, -1.06548,  -0.20723,  	  -0.00143, -0.00781,   -0.67341, 0.61898, 1.05347,  0.12227,  	  106.86044, 60.00000, 0.00000,     	 0.06022, 0.11021,   25.45151,  0.20000, 0.20000,  0.10000, 0.10000,      3,3,3    
0.6,   -0.00099, -0.00938,   1.43080, -2.41036, -1.07719,  -0.19609,  	  -0.00152, -0.01047,   -0.58036, 0.65946, 1.06705,  0.10820,  	  107.22591, 60.00000, 0.00000,     	 0.06192, 0.11818,   25.39182,  0.20000, 0.20000,  0.10000, 0.10000,      3,3,3    
0.6,   -0.00108, -0.01038,   1.39762, -2.52836, -1.07848,  -0.19336,  	  -0.00163, -0.01074,   -0.46732, 0.69924, 1.06727,  0.09199,  	  107.58986, 60.00000, 0.00000,     	 0.06419, 0.13356,   25.28494,  0.20000, 0.20000,  0.10000, 0.10000,      3,3,3    
0.6,   -0.00119, -0.01434,   1.40798, -2.62978, -1.07165,  -0.18789,  	  -0.00174, -0.01475,   -0.47919, 0.72817, 1.06671,  0.08516,  	  107.88980, 60.00000, 0.00000,     	 0.06858, 0.17763,   24.99852,  0.20000, 0.20000,  0.10000, 0.10000,      3,3,3    
0.6,   -0.00130, -0.00952,   1.35412, -2.74682, -1.07689,  -0.17598,  	  -0.00186, -0.00994,   -0.39753, 0.75947, 1.07008,  0.06953,  	  108.17982, 60.00000, 0.00000,     	 0.06962, 0.17231,   25.01959,  0.20000, 0.20000,  0.10000, 0.10000,      3,3,3    
0.6,   -0.00139, -0.00842,   1.32877, -2.84310, -1.07191,  -0.16816,  	  -0.00196, -0.00804,   -0.32458, 0.78631, 1.06838,  0.06816,  	  108.39593, 60.00000, 0.00000,     	 0.07044, 0.16546,   25.05142,  0.20000, 0.20000,  0.10000, 0.10000,      3,3,3    
0.6,   -0.00147, -0.01134,   1.30450, -2.93920, -1.06581,  -0.15156,  	  -0.00205, -0.01053,   -0.31996, 0.81358, 1.06474,  0.06797,  	  108.59087, 60.00000, 0.00000,     	 0.07415, 0.19738,   24.83933,  0.20000, 0.20000,  0.10000, 0.10000,      3,3,3    
0.7,   -0.00157, -0.01191,   1.25289, -3.02945, -1.07050,  -0.14687,  	  -0.00215, -0.01101,   -0.31396, 0.83898, 1.06636,  0.05371,  	  108.71995, 60.00000, 0.00000,     	 0.07835, 0.23276,   24.60333,  0.20000, 0.20000,  0.10000, 0.10000,      3,3,3    
0.7,   -0.00168, -0.01071,   1.21590, -3.11410, -1.06796,  -0.13535,  	  -0.00224, -0.00919,   -0.23982, 0.86362, 1.06842,  0.04531,  	  108.75953, 60.00000, 0.00000,     	 0.08146, 0.25070,   24.47544,  0.20000, 0.20000,  0.10000, 0.10000,      3,3,3    
0.7,   -0.00177, -0.01060,   1.15448, -3.18906, -1.06237,  -0.11992,  	  -0.00233, -0.00859,   -0.18018, 0.89201, 1.06429,  0.03008,  	  108.74443, 60.00000, 0.00000,     	 0.08502, 0.27370,   24.31495,  0.20000, 0.20000,  0.10000, 0.10000,      3,3,3    
0.7,   -0.00188, -0.00763,   1.09801, -3.25638, -1.07129,  -0.10996,  	  -0.00242, -0.00539,   -0.11155, 0.90882, 1.08448,  0.02012,  	  108.67362, 60.00000, 0.00000,     	 0.08817, 0.28371,   24.23190,  0.20000, 0.20000,  0.10000, 0.10000,      3,3,3    
0.7,   -0.00194, -0.00524,   1.01765, -3.34442, -1.04788,  -0.09186,  	  -0.00247, -0.00391,   -0.10719, 0.93686, 1.05683,  0.02150,  	  108.49162, 60.00000, 0.00000,     	 0.08717, 0.24348,   24.46842,  0.20000, 0.20000,  0.10000, 0.10000,      3,3,3    
0.7,   -0.00199, -0.00505,   0.97130, -3.37505, -1.04031,  -0.07734,  	  -0.00250, -0.00335,   -0.08230, 0.94583, 1.04294,  0.01934,  	  108.39597, 60.00000, 0.00000,     	 0.08522, 0.19604,   24.75410,  0.20000, 0.20000,  0.10000, 0.10000,      3,3,3    
0.7,   -0.00204, -0.00437,   0.87824, -3.43769, -1.04824,  -0.06451,  	  -0.00254, -0.00327,   -0.07310, 0.97897, 1.05536,  -0.00371,  	  108.07946, 60.00000, 0.00000,     	 0.08689, 0.19606,   24.73975,  0.20000, 0.20000,  0.10000, 0.10000,      3,3,3    
0.7,   -0.00210, -0.00542,   0.77660, -3.44861, -1.03983,  -0.04375,  	  -0.00258, -0.00217,   0.03495, 0.99229, 1.05647,  -0.01797,  	  107.95845, 60.00000, 0.00000,     	 0.09213, 0.24196,   24.43529,  0.20000, 0.20000,  0.10000, 0.10000,      3,3,3    
0.7,   -0.00215, -0.00498,   0.71415, -3.47300, -1.02646,  -0.02676,  	  -0.00259, -0.00017,   0.09918, 1.00396, 1.04733,  -0.01738,  	  107.70723, 60.00000, 0.00000,     	 0.09623, 0.26875,   24.24920,  0.20000, 0.20000,  0.10000, 0.10000,      3,3,3    
0.7,   -0.00219, -0.00291,   0.80114, -3.49325, -0.06102,  -0.00742,  	  -0.00259, 0.00062,   0.09302, 1.02456, 1.03828,  -0.02617,  	  107.38150, 60.00000, 0.00000,     	 0.09845, 0.26887,   24.23108,  0.20000, 0.20000,  0.10000, 0.10000,      3,3,3    
0.8,   -0.00221, -0.00149,   0.90876, -3.49579, 0.99229,  0.00578,  	  -0.00258, 0.00282,   0.18703, 1.04046, 1.03105,  -0.03320,  	  106.87539, 60.00000, 0.00000,     	 0.10257, 0.29086,   24.07316,  0.20000, 0.20000,  0.10000, 0.10000,      3,3,3    
0.8,   -0.00223, -0.00075,   0.85389, -3.48872, 1.00049,  0.01941,  	  -0.00255, 0.00430,   0.23986, 1.05248, 1.02724,  -0.03910,  	  106.49404, 60.00000, 0.00000,     	 0.10627, 0.30571,   23.95837,  0.20000, 0.20000,  0.10000, 0.10000,      3,3,3    
0.8,   -0.00222, 0.00223,   0.68961, -3.47263, 1.00708,  0.03709,  	  -0.00251, 0.00552,   -0.10230, 1.05862, -0.98897,  -0.05077,  	  106.28383, 60.00000, 0.00000,     	 0.10952, 0.31066,   23.90276,  0.20000, 0.20000,  0.10000, 0.10000,      3,3,3    
0.8,   -0.00220, 0.00214,   0.66100, -3.45289, 1.02044,  0.04101,  	  -0.00245, 0.00743,   -0.04245, 1.05540, -0.99909,  -0.06445,  	  105.82901, 60.00000, 0.00000,     	 0.11233, 0.31073,   23.87942,  0.20000, 0.20000,  0.10000, 0.10000,      3,3,3    
0.8,   -0.00217, 0.00389,   0.56902, -3.40601, 1.02613,  0.06051,  	  -0.00237, 0.00846,   -0.01934, 1.05104, -0.99815,  -0.07416,  	  105.12510, 60.00000, 0.00000,     	 0.11396, 0.29649,   23.94686,  0.20000, 0.20000,  0.10000, 0.10000,      3,3,3    
0.8,   -0.00213, 0.00470,   0.51657, -3.36551, 1.03985,  0.06639,  	  -0.00228, 0.01135,   0.09913, 1.04088, -1.01034,  -0.09371,  	  104.65105, 60.00000, 0.00000,     	 0.11749, 0.30705,   23.85801,  0.20000, 0.20000,  0.10000, 0.10000,      3,3,3    
0.8,   -0.00208, 0.00498,   0.45530, -3.34263, 1.04727,  0.07773,  	  -0.00217, 0.01243,   0.13870, 1.03362, -1.01089,  -0.10625,  	  104.41197, 60.00000, 0.00000,     	 0.11906, 0.29246,   23.92812,  0.20000, 0.20000,  0.10000, 0.10000,      3,3,3    
0.8,   -0.00203, 0.00590,   0.44618, -3.29559, 1.06628,  0.07422,  	  -0.00203, 0.01676,   0.24152, 1.00919, -1.01877,  -0.11328,  	  103.92873, 60.00000, 0.00000,     	 0.12331, 0.31262,   23.77907,  0.20000, 0.20000,  0.10000, 0.10000,      3,3,3    
0.8,   -0.00197, 0.00515,   0.45077, -3.22965, 1.07233,  0.07807,  	  -0.00187, 0.01540,   0.27096, 0.96046, -1.01707,  -0.12105,  	  103.22793, 60.00000, 0.00000,     	 0.12479, 0.29395,   23.87342,  0.20000, 0.20000,  0.10000, 0.10000,      3,3,3    
0.8,   -0.00192, 0.00544,   0.43199, -3.18258, 1.09045,  0.07809,  	  -0.00171, 0.01687,   0.31220, 0.92341, -1.02130,  -0.13465,  	  102.79116, 60.00000, 0.00000,     	 0.12816, 0.30086,   23.80690,  0.20000, 0.20000,  0.10000, 0.10000,      3,3,3    
0.9,   -0.00186, 0.00690,   0.39199, -3.15897, 1.09050,  0.07832,  	  -0.00153, 0.02055,   0.36584, 0.90516, -1.01928,  -0.13262,  	  102.56236, 60.00000, 0.00000,     	 0.13185, 0.31163,   23.71560,  0.20000, 0.20000,  0.10000, 0.10000,      3,3,3    
0.9,   -0.00180, 0.00718,   0.37189, -3.11668, 1.08517,  0.07676,  	  -0.00134, 0.01998,   0.37388, 0.86134, -1.01908,  -0.13086,  	  102.14551, 60.00000, 0.00000,     	 0.13358, 0.29737,   23.78285,  0.20000, 0.20000,  0.10000, 0.10000,      3,3,3    
0.9,   -0.00173, 0.00514,   0.49381, -3.04648, 1.10765,  0.06826,  	  -0.00114, 0.02214,   0.45470, 0.79446, -1.02739,  -0.14066,  	  101.49126, 60.00000, 0.00000,     	 0.13792, 0.31624,   23.64080,  0.20000, 0.20000,  0.10000, 0.10000,      3,3,3    
0.9,   -0.00168, 0.00441,   0.50247, -3.01513, 1.11824,  0.05664,  	  -0.00092, 0.02048,   0.40577, 0.75021, -1.02026,  -0.12314,  	  101.04042, 60.00000, 0.00000,     	 0.14102, 0.31707,   23.61089,  0.20000, 0.20000,  0.10000, 0.10000,      3,3,3    
0.9,   -0.00163, 0.00441,   0.51863, -2.98416, 1.10653,  0.05080,  	  -0.00073, 0.01873,   0.36620, 0.70610, -1.01632,  -0.13273,  	  100.57969, 60.00000, 0.00000,     	 0.14365, 0.31221,   23.61718,  0.20000, 0.20000,  0.10000, 0.10000,      3,3,3    
0.9,   -0.00159, 0.00454,   0.49390, -2.95354, 1.11746,  0.04697,  	  -0.00053, 0.01938,   0.40008, 0.66173, -1.01366,  -0.13277,  	  100.11896, 60.00000, 0.00000,     	 0.14735, 0.32281,   23.52684,  0.20000, 0.20000,  0.10000, 0.10000,      3,3,3    
0.9,   -0.00154, 0.00430,   0.53404, -2.94113, 1.12602,  0.04180,  	  -0.00032, 0.02075,   0.40814, 0.64161, -1.01479,  -0.12891,  	  99.89122, 60.00000, 0.00000,     	 0.15210, 0.34516,   23.36120,  0.20000, 0.20000,  0.10000, 0.10000,      3,3,3    
0.9,   -0.00150, 0.00252,   0.61528, -2.91656, 1.12272,  0.02969,  	  -0.00011, 0.02030,   0.37356, 0.59955, -1.01172,  -0.12813,  	  99.48056, 60.00000, 0.00000,     	 0.15635, 0.35828,   23.25237,  0.20000, 0.20000,  0.10000, 0.10000,      3,3,3    
0.9,   -0.00148, 0.00132,   0.63492, -2.89762, 1.11642,  0.02930,  	  0.00009, 0.01994,   0.43638, 0.56185, -0.99972,  -0.13086,  	  99.06973, 60.00000, 0.00000,     	 0.15853, 0.34315,   23.32107,  0.20000, 0.20000,  0.10000, 0.10000,      3,3,3    
0.9,   -0.00147, -0.00043,   0.73150, -2.88706, 1.12225,  0.00979,  	  0.00029, 0.01927,   0.42173, 0.50138, -0.99606,  -0.11535,  	  98.45174, 60.00000, 0.00000,     	 0.16176, 0.34299,   23.29626,  0.20000, 0.20000,  0.10000, 0.10000,      3,3,3    
1.0,   -0.00148, -0.00207,   0.80725, -2.88519, 1.11276,  0.00156,  	  0.00048, 0.01811,   0.75633, 0.47930, 1.01888,  -0.11328,  	  98.24910, 60.00000, 0.00000,     	 0.16452, 0.33761,   23.30643,  0.20000, 0.20000,  0.10000, 0.10000,      3,3,3    
1.0,   -0.00150, -0.00271,   0.84245, -2.89141, 1.11551,  -0.02135,  	  0.00066, 0.01601,   0.69984, 0.43829, 1.02745,  -0.10543,  	  97.47635, 60.00000, 0.00000,     	 0.16678, 0.32520,   23.35865,  0.20000, 0.20000,  0.10000, 0.10000,      3,3,3    
1.0,   -0.00154, -0.00500,   0.91455, -2.90919, 1.11332,  -0.02920,  	  0.00083, 0.01614,   0.72936, 0.40685, 1.04550,  -0.10160,  	  96.96201, 60.00000, 0.00000,     	 0.17010, 0.32650,   23.32497,  0.20000, 0.20000,  0.10000, 0.10000,      3,3,3    
1.0,   -0.00159, -0.00554,   0.96881, -2.92809, 1.09270,  -0.04090,  	  0.00098, 0.01402,   0.68035, 0.38638, 1.04472,  -0.08797,  	  96.42285, 60.00000, 0.00000,     	 0.16915, 0.27593,   23.62077,  0.20000, 0.20000,  0.10000, 0.10000,      3,3,3    
1.0,   -0.00167, -0.00861,   1.04270, -2.94200, 1.09940,  -0.04805,  	  0.00113, 0.01433,   0.65278, 0.37093, 1.06566,  -0.07227,  	  96.15553, 60.00000, 0.00000,     	 0.17244, 0.28182,   23.56102,  0.20000, 0.20000,  0.10000, 0.10000,      3,3,3    
1.0,   -0.00177, -0.01075,   1.14320, -2.97153, 1.08186,  -0.06387,  	  0.00126, 0.01006,   0.49192, 0.35979, 1.07033,  -0.05879,  	  95.62591, 60.00000, 0.00000,     	 0.17453, 0.27481,   23.58412,  0.20000, 0.20000,  0.10000, 0.10000,      3,3,3    
1.0,   -0.00189, -0.01315,   1.17391, -3.02683, 1.07176,  -0.06830,  	  0.00136, 0.00870,   0.43884, 0.36305, 1.09244,  -0.05658,  	  94.82835, 60.00000, 0.00000,     	 0.18004, 0.30969,   23.34087,  0.20000, 0.20000,  0.10000, 0.10000,      3,3,3    
1.0,   -0.00202, -0.01349,   1.24450, -3.04686, 1.06045,  -0.07246,  	  0.00144, 0.00802,   0.44877, 0.36227, 1.09060,  -0.05801,  	  94.57087, 60.00000, 0.00000,     	 0.18200, 0.29890,   23.38712,  0.20000, 0.20000,  0.10000, 0.10000,      3,3,3    
1.0,   -0.00215, -0.01460,   1.29786, -3.09205, 1.06622,  -0.08203,  	  0.00152, 0.00880,   0.46064, 0.36576, 1.09655,  -0.04766,  	  94.05576, 60.00000, 0.00000,     	 0.18431, 0.29198,   23.40836,  0.20000, 0.20000,  0.10000, 0.10000,      3,3,3    
1.0,   -0.00231, -0.01554,   1.31082, -3.14224, 1.06419,  -0.08906,  	  0.00161, 0.00704,   0.38647, 0.36511, 1.11443,  -0.04102,  	  93.52612, 60.00000, 0.00000,     	 0.18770, 0.29789,   23.34706,  0.20000, 0.20000,  0.10000, 0.10000,      3,3,3    
1.1,   -0.00247, -0.01704,   1.35367, -3.19797, 1.05227,  -0.08789,  	  0.00167, 0.00644,   0.37108, 0.37985, 1.11327,  -0.03906,  	  92.99108, 60.00000, 0.00000,     	 0.19067, 0.30032,   23.30955,  0.20000, 0.20000,  0.10000, 0.10000,      3,3,3    
1.1,   -0.00264, -0.01764,   1.40650, -3.24852, 1.05402,  -0.09413,  	  0.00173, 0.00629,   0.38314, 0.39026, 1.11847,  -0.04629,  	  92.45614, 60.00000, 0.00000,     	 0.19167, 0.27810,   23.42857,  0.20000, 0.20000,  0.10000, 0.10000,      3,3,3    
1.1,   -0.00282, -0.01983,   1.40435, -3.30388, 1.05885,  -0.09375,  	  0.00180, 0.00910,   0.41439, 0.40439, 1.12905,  -0.03914,  	  91.96062, 60.00000, 0.00000,     	 0.19615, 0.30270,   23.25222,  0.20000, 0.20000,  0.10000, 0.10000,      3,3,3    
1.1,   -0.00302, -0.01887,   1.42028, -3.38953, 1.06167,  -0.08988,  	  0.00189, 0.00703,   0.35586, 0.42789, 1.13992,  -0.02937,  	  91.24212, 60.00000, 0.00000,     	 0.20010, 0.31405,   23.15553,  0.20000, 0.20000,  0.10000, 0.10000,      3,3,3    
1.1,   -0.00319, -0.01779,   1.43915, -3.44488, 1.05030,  -0.09184,  	  0.00195, 0.00646,   0.34869, 0.44551, 1.12498,  -0.03324,  	  90.69202, 60.00000, 0.00000,     	 0.20054, 0.28119,   23.33935,  0.20000, 0.20000,  0.10000, 0.10000,      3,3,3    
1.1,   -0.00338, -0.01893,   1.45306, -3.49536, 1.05705,  -0.09570,  	  0.00202, 0.00531,   0.27274, 0.46926, 1.13637,  -0.01957,  	  90.12682, 60.00000, 0.00000,     	 0.20366, 0.28645,   23.28410,  0.20000, 0.20000,  0.10000, 0.10000,      3,3,3    
1.1,   -0.00358, -0.02056,   1.48313, -3.55569, 1.04520,  -0.10348,  	  0.00206, 0.00484,   0.26632, 0.49332, 1.14713,  -0.02730,  	  89.56652, 60.00000, 0.00000,     	 0.20786, 0.30462,   23.14688,  0.20000, 0.20000,  0.10000, 0.10000,      3,3,3    
1.1,   -0.00378, -0.02105,   1.52067, -3.61580, 1.05128,  -0.10545,  	  0.00212, 0.00686,   0.31682, 0.51840, 1.15352,  -0.02547,  	  88.99622, 60.00000, 0.00000,     	 0.21082, 0.30389,   23.12756,  0.20000, 0.20000,  0.10000, 0.10000,      3,3,3    
1.1,   -0.00401, -0.02295,   1.54428, -3.64586, 1.05771,  -0.10723,  	  0.00219, 0.00663,   0.28317, 0.53106, 1.16639,  -0.02734,  	  88.71352, 60.00000, 0.00000,     	 0.21559, 0.32585,   22.96391,  0.20000, 0.20000,  0.10000, 0.10000,      3,3,3    
1.1,   -0.00423, -0.02354,   1.55797, -3.74052, 1.05863,  -0.09773,  	  0.00225, 0.00669,   0.26714, 0.57409, 1.16679,  -0.02926,  	  87.88486, 60.00000, 0.00000,     	 0.21985, 0.33997,   22.84911,  0.20000, 0.20000,  0.10000, 0.10000,      3,3,3    
1.2,   -0.00446, -0.02099,   1.51407, -3.79064, 1.06295,  -0.09764,  	  0.00233, 0.00875,   0.32659, 0.58949, 1.16291,  -0.04484,  	  87.34440, 60.00000, 0.00000,     	 0.22281, 0.33562,   22.84950,  0.20000, 0.20000,  0.10000, 0.10000,      3,3,3    
1.2,   -0.00466, -0.02045,   1.53964, -3.84592, 1.07934,  -0.08992,  	  0.00243, 0.01219,   0.42174, 0.60033, 1.15456,  -0.05855,  	  86.80894, 60.00000, 0.00000,     	 0.22454, 0.31706,   22.94183,  0.20000, 0.20000,  0.10000, 0.10000,      3,3,3    
1.2,   -0.00486, -0.01957,   1.51989, -3.90143, 1.10014,  -0.09373,  	  0.00256, 0.01601,   0.49825, 0.60130, 1.15080,  -0.07029,  	  86.28376, 60.00000, 0.00000,     	 0.22736, 0.31626,   22.92357,  0.20000, 0.20000,  0.10000, 0.10000,      3,3,3    
1.2,   -0.00505, -0.01983,   1.52498, -3.95708, 1.12264,  -0.08984,  	  0.00273, 0.01976,   0.56731, 0.59218, 1.15751,  -0.08395,  	  85.77406, 60.00000, 0.00000,     	 0.23125, 0.32711,   22.83055,  0.20000, 0.20000,  0.10000, 0.10000,      3,3,3    
1.2,   -0.00525, -0.01941,   1.53852, -4.00830, 1.14007,  -0.08211,  	  0.00294, 0.02238,   0.62507, 0.57816, 1.15131,  -0.09564,  	  85.26937, 60.00000, 0.00000,     	 0.23389, 0.32084,   22.84525,  0.20000, 0.20000,  0.10000, 0.10000,      3,3,3    
1.2,   -0.00543, -0.01666,   1.49647, -4.05521, 1.15927,  -0.08008,  	  0.00317, 0.02463,   0.70534, 0.55824, 1.14494,  -0.10932,  	  84.78949, 60.00000, 0.00000,     	 0.23606, 0.30953,   22.89203,  0.20000, 0.20000,  0.10000, 0.10000,      3,3,3    
1.2,   -0.00559, -0.01533,   1.46969, -4.07672, 1.19273,  -0.07402,  	  0.00344, 0.02835,   0.75778, 0.54099, 1.14701,  -0.11484,  	  84.54730, 60.00000, 0.00000,     	 0.24081, 0.33065,   22.73312,  0.20000, 0.20000,  0.10000, 0.10000,      3,3,3    
1.2,   -0.00574, -0.01363,   1.46672, -4.14099, 1.19819,  -0.06451,  	  0.00373, 0.02912,   0.80472, 0.49708, 1.13386,  -0.11914,  	  83.87496, 60.00000, 0.00000,     	 0.24276, 0.31473,   22.80825,  0.20000, 0.20000,  0.10000, 0.10000,      3,3,3    
1.2,   -0.00587, -0.01238,   1.45184, -4.17456, 1.21000,  -0.06254,  	  0.00403, 0.03059,   0.81092, 0.46065, 1.12270,  -0.13268,  	  83.43539, 60.00000, 0.00000,     	 0.24579, 0.31407,   22.78740,  0.20000, 0.20000,  0.10000, 0.10000,      3,3,3    
1.2,   -0.00599, -0.01235,   1.44240, -4.21367, 1.23409,  -0.06250,  	  0.00437, 0.03770,   0.89656, 0.41836, 1.11889,  -0.13475,  	  83.02581, 60.00000, 0.00000,     	 0.25216, 0.35626,   22.49580,  0.20000, 0.20000,  0.10000, 0.10000,      3,3,3    
1.3,   -0.00610, -0.01030,   1.44141, -4.24934, 1.24613,  -0.05475,  	  0.00474, 0.03816,   1.00172, 0.36143, 1.11633,  -0.15232,  	  82.61171, 60.00000, 0.00000,     	 0.25489, 0.34616,   22.53199,  0.20000, 0.20000,  0.10000, 0.10000,      3,3,3    
1.3,   -0.00620, -0.00972,   1.46070, -4.28542, 1.26551,  -0.05863,  	  0.00513, 0.04251,   1.07925, 0.30426, 1.10261,  -0.16404,  	  82.20752, 60.00000, 0.00000,     	 0.25787, 0.34090,   22.53856,  0.20000, 0.20000,  0.10000, 0.10000,      3,3,3    
1.3,   -0.00628, -0.00760,   1.43269, -4.30371, 1.29009,  -0.05117,  	  0.00555, 0.04161,   1.11632, 0.27058, 1.10371,  -0.16953,  	  82.01096, 60.00000, 0.00000,     	 0.25882, 0.30985,   22.70771,  0.20000, 0.20000,  0.10000, 0.10000,      3,3,3    
1.3,   -0.00635, -0.00701,   1.41696, -4.33152, 1.30262,  -0.05078,  	  0.00599, 0.04798,   1.16102, 0.20292, 1.09220,  -0.17539,  	  81.61189, 60.00000, 0.00000,     	 0.26316, 0.32495,   22.58670,  0.20000, 0.20000,  0.10000, 0.10000,      3,3,3    
1.3,   -0.00642, -0.00555,   1.40572, -4.37413, 1.32398,  -0.04107,  	  0.00647, 0.05161,   1.21826, 0.09671, 1.08971,  -0.18549,  	  81.01658, 60.00000, 0.00000,     	 0.26773, 0.34078,   22.45988,  0.20000, 0.20000,  0.10000, 0.10000,      3,3,3    
1.3,   -0.00646, -0.00371,   1.40171, -4.40417, 1.34148,  -0.04105,  	  0.00698, 0.05537,   1.31862, 0.01938, 1.07517,  -0.18951,  	  80.62258, 60.00000, 0.00000,     	 0.27175, 0.34877,   22.38262,  0.20000, 0.20000,  0.10000, 0.10000,      3,3,3    
1.3,   -0.00649, -0.00152,   1.36872, -4.41913, 1.35748,  -0.02938,  	  0.00752, 0.05402,   1.32371, -0.01945, 1.07080,  -0.19143,  	  80.43091, 60.00000, 0.00000,     	 0.27445, 0.33820,   22.42060,  0.20000, 0.20000,  0.10000, 0.10000,      3,3,3    
1.3,   -0.00649, 0.00075,   1.32564, -4.43949, 1.35991,  -0.02930,  	  0.00804, 0.05337,   0.93900, -0.10037, -0.95163,  -0.19527,  	  80.09710, 60.00000, 0.00000,     	 0.27665, 0.32230,   22.48983,  0.20000, 0.20000,  0.10000, 0.10000,      3,3,3    
1.3,   -0.00648, 0.00192,   1.32339, -4.45991, 1.37665,  -0.01574,  	  0.00858, 0.05704,   0.95078, -0.18396, -0.95813,  -0.19916,  	  79.81815, 60.00000, 0.00000,     	 0.28141, 0.34065,   22.34694,  0.20000, 0.20000,  0.10000, 0.10000,      3,3,3    
1.3,   -0.00645, 0.00357,   1.31953, -4.48286, 1.41033,  -0.02152,  	  0.00916, 0.05701,   0.96705, -0.31083, -0.97946,  -0.19143,  	  79.31729, 60.00000, 0.00000,     	 0.28635, 0.35842,   22.20581,  0.20000, 0.20000,  0.10000, 0.10000,      3,3,3    
1.4,   -0.00640, 0.00706,   1.23683, -4.49537, 1.39986,  -0.01557,  	  0.00973, 0.05718,   0.94994, -0.39103, -0.97522,  -0.18750,  	  78.95834, 60.00000, 0.00000,     	 0.29147, 0.37728,   22.05600,  0.20000, 0.20000,  0.10000, 0.10000,      3,3,3    
1.4,   -0.00634, 0.00583,   1.26930, -4.50856, 1.39913,  -0.00789,  	  0.01028, 0.05230,   0.94110, -0.47195, -0.98713,  -0.18746,  	  78.61374, 60.00000, 0.00000,     	 0.29367, 0.35596,   22.15984,  0.20000, 0.20000,  0.10000, 0.10000,      3,3,3    
1.4,   -0.00627, 0.00872,   1.20588, -4.51508, 1.39790,  0.00137,  	  0.01082, 0.05290,   0.96642, -0.51236, -0.99568,  -0.18555,  	  78.44194, 60.00000, 0.00000,     	 0.29687, 0.35003,   22.16727,  0.20000, 0.20000,  0.10000, 0.10000,      3,3,3    
1.4,   -0.00617, 0.01086,   1.18162, -4.51884, 1.39387,  0.00000,  	  0.01134, 0.05272,   0.94701, -0.59494, -1.01431,  -0.17969,  	  78.11260, 60.00000, 0.00000,     	 0.29955, 0.33970,   22.20416,  0.20000, 0.20000,  0.10000, 0.10000,      3,3,3    
1.4,   -0.00605, 0.01485,   1.11006, -4.51998, 1.40615,  0.00787,  	  0.01188, 0.05417,   0.98137, -0.72202, -1.01742,  -0.18166,  	  77.67071, 60.00000, 0.00000,     	 0.30399, 0.35162,   22.09995,  0.20000, 0.20000,  0.10000, 0.10000,      3,3,3    
1.4,   -0.00591, 0.01503,   1.10935, -4.51802, 1.41149,  0.01367,  	  0.01242, 0.05261,   0.97211, -0.79291, -1.03731,  -0.17389,  	  77.38995, 60.00000, 0.00000,     	 0.30710, 0.34622,   22.10541,  0.20000, 0.20000,  0.10000, 0.10000,      3,3,3    
1.4,   -0.00575, 0.01578,   1.12830, -4.51728, 1.40896,  0.00590,  	  0.01296, 0.05448,   0.94155, -0.87337, -1.04674,  -0.16607,  	  77.10531, 60.00000, 0.00000,     	 0.31274, 0.37397,   21.90162,  0.20000, 0.20000,  0.10000, 0.10000,      3,3,3    
1.4,   -0.00560, 0.01437,   1.14123, -4.52576, 1.40903,  0.00201,  	  0.01349, 0.04979,   0.87168, -0.94366, -1.04014,  -0.14852,  	  76.83449, 60.00000, 0.00000,     	 0.31701, 0.38169,   21.82270,  0.20000, 0.20000,  0.10000, 0.10000,      3,3,3    
1.4,   -0.00546, 0.01150,   1.18081, -4.52323, 1.38574,  -0.00387,  	  0.01397, 0.04454,   0.78602, -1.00595, -1.03155,  -0.13094,  	  76.57841, 60.00000, 0.00000,     	 0.32069, 0.38127,   21.79513,  0.20000, 0.20000,  0.10000, 0.10000,      3,3,3    
1.4,   -0.00537, 0.00836,   1.18797, -4.53524, 1.35350,  -0.00582,  	  0.01440, 0.03934,   0.69976, -1.06239, -1.01139,  -0.12689,  	  76.33642, 60.00000, 0.00000,     	 0.32305, 0.36445,   21.87138,  0.20000, 0.20000,  0.10000, 0.10000,      3,3,3    
1.5,   -0.00529, 0.00769,   1.19109, -4.53588, 1.36017,  -0.00582,  	  0.01481, 0.03780,   0.63769, -1.11056, -1.00579,  -0.10355,  	  76.10484, 60.00000, 0.00000,     	 0.32869, 0.38986,   21.68072,  0.20000, 0.20000,  0.10000, 0.10000,      3,3,3    
1.5,   -0.00522, 0.00606,   1.19659, -4.54574, 1.32372,  -0.00197,  	  0.01517, 0.03061,   0.53367, -1.14828, -0.99952,  -0.07822,  	  75.88150, 60.00000, 0.00000,     	 0.33219, 0.38759,   21.66498,  0.20000, 0.20000,  0.10000, 0.10000,      3,3,3    
1.5,   -0.00516, 0.00596,   1.17836, -4.54970, 1.28645,  -0.00898,  	  0.01546, 0.02537,   0.45986, -1.16226, -0.99544,  -0.07422,  	  75.77293, 60.00000, 0.00000,     	 0.33664, 0.39754,   21.57182,  0.20000, 0.20000,  0.10000, 0.10000,      3,3,3    
1.5,   -0.00511, 0.00316,   1.20039, -4.56157, 1.27239,  -0.00973,  	  0.01571, 0.02298,   0.41305, -1.20658, -0.98420,  -0.05672,  	  75.49099, 60.00000, 0.00000,     	 0.34051, 0.39753,   21.54062,  0.20000, 0.20000,  0.10000, 0.10000,      3,3,3    
1.5,   -0.00509, 0.00204,   1.19778, -4.56451, 1.25079,  -0.00586,  	  0.01593, 0.01909,   0.33043, -1.21153, -0.97109,  -0.03125,  	  75.39606, 60.00000, 0.00000,     	 0.34683, 0.42888,   21.31065,  0.20000, 0.20000,  0.10000, 0.10000,      3,3,3    
1.5,   -0.00508, -0.00014,   1.20047, -4.57486, 1.20661,  -0.00781,  	  0.01608, 0.00960,   0.17540, -1.21478, -0.96787,  -0.00566,  	  75.18629, 60.00000, 0.00000,     	 0.35016, 0.41641,   21.35441,  0.20000, 0.20000,  0.10000, 0.10000,      3,3,3    
1.5,   -0.00509, -0.00241,   1.19327, -4.58331, 1.15938,  -0.01168,  	  0.01614, 0.00062,   0.42073, -1.20858, 1.05248,  0.00586,  	  74.98710, 60.00000, 0.00000,     	 0.35516, 0.42638,   21.25757,  0.20000, 0.20000,  0.10000, 0.10000,      3,3,3    
1.5,   -0.00512, -0.00508,   0.81917, -4.59499, -0.87688,  -0.01170,  	  0.01613, -0.00471,   0.34434, -1.17407, 1.06653,  0.03307,  	  74.72495, 60.00000, 0.00000,     	 0.36178, 0.45674,   21.02827,  0.20000, 0.20000,  0.10000, 0.10000,      3,3,3    
1.5,   -0.00519, -0.00866,   0.80240, -4.60525, -0.92518,  -0.01559,  	  0.01605, -0.01431,   0.18490, -1.14232, 1.08319,  0.04494,  	  74.51891, 60.00000, 0.00000,     	 0.36841, 0.48327,   20.82325,  0.20000, 0.20000,  0.10000, 0.10000,      3,3,3    
1.5,   -0.00528, -0.01080,   0.79951, -4.61397, -0.95795,  -0.00820,  	  0.01590, -0.01973,   0.09141, -1.11634, 1.10039,  0.07832,  	  74.42243, 60.00000, 0.00000,     	 0.37427, 0.49668,   20.69932,  0.20000, 0.20000,  0.10000, 0.10000,      3,3,3    
1.6,   -0.00540, -0.01289,   0.77476, -4.62677, -1.02447,  -0.00977,  	  0.01566, -0.03236,   -0.12055, -1.02047, 1.10882,  0.11893,  	  74.14301, 60.00000, 0.00000,     	 0.38085, 0.51494,   20.54193,  0.20000, 0.20000,  0.10000, 0.10000,      3,3,3    
1.6,   -0.00554, -0.01635,   0.73841, -4.63452, -1.11216,  -0.00779,  	  0.01528, -0.04738,   -0.33319, -0.93336, 1.13595,  0.14248,  	  73.92282, 60.00000, 0.00000,     	 0.38810, 0.53809,   20.35145,  0.20000, 0.20000,  0.10000, 0.10000,      3,3,3    
1.6,   -0.00571, -0.01849,   0.72400, -4.63441, -1.18704,  -0.00059,  	  0.01476, -0.05676,   -0.46219, -0.88258, 1.15103,  0.16113,  	  73.81088, 60.00000, 0.00000,     	 0.39523, 0.56137,   20.16137,  0.20000, 0.20000,  0.10000, 0.10000,      3,3,3    
1.6,   -0.00589, -0.01973,   0.70227, -4.63894, -1.23425,  -0.00971,  	  0.01416, -0.06424,   -0.57426, -0.77470, 1.15193,  0.16990,  	  73.56992, 60.00000, 0.00000,     	 0.40146, 0.56566,   20.08677,  0.20000, 0.20000,  0.10000, 0.10000,      3,3,3    
1.6,   -0.00611, -0.02556,   0.77506, -4.65480, -1.26681,  -0.01564,  	  0.01351, -0.06678,   -0.63744, -0.60072, 1.17947,  0.17965,  	  73.24576, 60.00000, 0.00000,     	 0.40757, 0.57061,   20.00970,  0.20000, 0.20000,  0.10000, 0.10000,      3,3,3    
1.6,   -0.00637, -0.02509,   0.70935, -4.66659, -1.29454,  -0.00973,  	  0.01282, -0.07117,   -0.71068, -0.47988, 1.20699,  0.19521,  	  72.97479, 60.00000, 0.00000,     	 0.41353, 0.57211,   19.95284,  0.20000, 0.20000,  0.10000, 0.10000,      3,3,3    
1.6,   -0.00663, -0.02613,   0.69285, -4.66913, -1.32680,  -0.00039,  	  0.01209, -0.07866,   -0.83640, -0.41232, 1.20692,  0.20840,  	  72.83532, 60.00000, 0.00000,     	 0.41860, 0.56120,   19.97439,  0.20000, 0.20000,  0.10000, 0.10000,      3,3,3    
1.6,   -0.00689, -0.02703,   0.64593, -4.67172, -1.39628,  0.00775,  	  0.01126, -0.08714,   -0.96357, -0.19154, 1.20860,  0.23424,  	  72.44825, 60.00000, 0.00000,     	 0.42507, 0.56979,   19.87364,  0.20000, 0.20000,  0.10000, 0.10000,      3,3,3    
1.6,   -0.00716, -0.02874,   0.59732, -4.67194, -1.46407,  0.01748,  	  0.01033, -0.10209,   -1.11832, -0.03542, 1.21553,  0.24025,  	  72.14441, 60.00000, 0.00000,     	 0.43292, 0.59575,   19.66291,  0.20000, 0.20000,  0.10000, 0.10000,      3,3,3    
1.6,   -0.00743, -0.02441,   0.50851, -4.66000, -1.51464,  0.02342,  	  0.00930, -0.10413,   -1.16376, 0.12947, 1.21056,  0.24607,  	  71.83029, 60.00000, 0.00000,     	 0.43904, 0.59476,   19.61899,  0.20000, 0.20000,  0.10000, 0.10000,      3,3,3    
1.7,   -0.00766, -0.02417,   0.50380, -4.65381, -1.51542,  0.02676,  	  0.00827, -0.10479,   -1.22276, 0.21203, 1.19482,  0.25332,  	  71.67040, 60.00000, 0.00000,     	 0.44271, 0.56208,   19.77586,  0.20000, 0.20000,  0.10000, 0.10000,      3,3,3    
1.7,   -0.00790, -0.02300,   0.41675, -4.63208, -1.56100,  0.04096,  	  0.00719, -0.11380,   -1.33249, 0.46674, 1.20146,  0.25979,  	  71.24089, 60.00000, 0.00000,     	 0.44780, 0.55199,   19.79266,  0.20000, 0.20000,  0.10000, 0.10000,      3,3,3    
1.7,   -0.00812, -0.02099,   0.36304, -4.61953, -1.63178,  0.04682,  	  0.00602, -0.11968,   -1.33852, 0.55360, 1.19139,  0.25973,  	  71.07511, 60.00000, 0.00000,     	 0.45581, 0.57971,   19.57022,  0.20000, 0.20000,  0.10000, 0.10000,      3,3,3    
1.7,   -0.00832, -0.01965,   0.33325, -4.57968, -1.63588,  0.05072,  	  0.00482, -0.12337,   -1.37724, 0.81093, 1.17689,  0.24813,  	  70.63590, 60.00000, 0.00000,     	 0.46287, 0.59223,   19.44232,  0.20000, 0.20000,  0.10000, 0.10000,      3,3,3    
1.7,   -0.00850, -0.01632,   0.26610, -4.56225, -1.67284,  0.05662,  	  0.00359, -0.12366,   -1.37459, 0.89140, 1.17153,  0.25580,  	  70.48029, 60.00000, 0.00000,     	 0.47199, 0.62994,   19.15383,  0.20000, 0.20000,  0.10000, 0.10000,      3,3,3    
1.7,   -0.00865, -0.01460,   0.22983, -4.51019, -1.70168,  0.06053,  	  0.00234, -0.12566,   -1.42307, 1.14603, 1.16158,  0.25582,  	  70.05131, 60.00000, 0.00000,     	 0.48005, 0.64751,   18.98903,  0.20000, 0.20000,  0.10000, 0.10000,      3,3,3    
1.7,   -0.00879, -0.01052,   0.16630, -4.46745, -1.71658,  0.07609,  	  0.00108, -0.12151,   -1.42645, 1.30865, 1.15484,  0.24223,  	  69.77697, 60.00000, 0.00000,     	 0.48549, 0.62822,   19.05488,  0.20000, 0.20000,  0.10000, 0.10000,      3,3,3    
1.7,   -0.00887, -0.00590,   0.10237, -4.41964, -1.70367,  0.08199,  	  -0.00015, -0.12561,   -1.44123, 1.46703, 1.11439,  0.24025,  	  69.46804, 60.00000, 0.00000,     	 0.49224, 0.62936,   18.99394,  0.20000, 0.20000,  0.10000, 0.10000,      3,3,3    
1.7,   -0.00891, -0.00217,   0.04357, -4.37184, -1.72224,  0.08594,  	  -0.00140, -0.12328,   -1.44451, 1.62277, 1.09827,  0.23439,  	  69.20809, 60.00000, 0.00000,     	 0.49720, 0.60820,   19.07427,  0.20000, 0.20000,  0.10000, 0.10000,      3,3,3    
1.7,   -0.00893, -0.00155,   0.04306, -4.31879, -1.71976,  0.08785,  	  -0.00262, -0.12209,   -1.44433, 1.77469, 1.08135,  0.23047,  	  68.90377, 60.00000, 0.00000,     	 0.50198, 0.58546,   19.16511,  0.20000, 0.20000,  0.10000, 0.10000,      3,3,3    
1.8,   -0.00894, -0.00051,   0.01916, -4.26520, -1.73065,  0.08594,  	  -0.00384, -0.12061,   -1.44235, 1.92315, 1.07790,  0.22268,  	  68.66183, 60.00000, 0.00000,     	 0.50658, 0.56444,   19.24743,  0.20000, 0.20000,  0.10000, 0.10000,      3,3,3    
1.8,   -0.00893, 0.00304,   -0.00872, -4.20900, -1.71361,  0.08791,  	  -0.00503, -0.11374,   -1.53694, 2.05803, 0.21138,  0.19930,  	  68.37814, 60.00000, 0.00000,     	 0.50954, 0.52598,   19.44329,  0.20000, 0.20000,  0.10000, 0.10000,      3,3,3    
1.8,   -0.00889, 0.00732,   -0.03423, -4.18071, -1.67654,  0.09551,  	  -0.00614, -0.10844,   -1.71365, 2.12553, -0.95471,  0.18613,  	  68.23345, 60.00000, 0.00000,     	 0.51323, 0.50064,   19.55929,  0.20000, 0.20000,  0.10000, 0.10000,      3,3,3    
1.8,   -0.00880, 0.01202,   -0.08848, -4.08755, -1.65972,  0.10736,  	  -0.00720, -0.10404,   -1.67678, 2.31175, -0.98426,  0.17389,  	  67.88386, 60.00000, 0.00000,     	 0.51613, 0.46918,   19.71447,  0.20000, 0.20000,  0.10000, 0.10000,      3,3,3    
1.8,   -0.00865, 0.01726,   -0.13435, -4.02005, -1.65332,  0.11516,  	  -0.00823, -0.09930,   -1.63979, 2.41701, -1.02142,  0.16410,  	  67.63320, 60.00000, 0.00000,     	 0.51830, 0.43182,   19.90923,  0.20000, 0.20000,  0.10000, 0.10000,      3,3,3    
1.8,   -0.00846, 0.02534,   -0.22185, -3.94863, -1.63487,  0.12496,  	  -0.00922, -0.09492,   -1.56924, 2.51495, -1.05259,  0.13492,  	  67.40834, 60.00000, 0.00000,     	 0.51982, 0.39076,   20.13001,  0.20000, 0.20000,  0.10000, 0.10000,      3,3,3    
1.8,   -0.00817, 0.03310,   -0.27518, -3.90826, -1.59979,  0.12890,  	  -0.01014, -0.08854,   -1.49532, 2.56274, -1.11021,  0.13281,  	  67.29997, 60.00000, 0.00000,     	 0.52224, 0.36536,   20.25422,  0.20000, 0.20000,  0.10000, 0.10000,      3,3,3    
1.8,   -0.00783, 0.03851,   -0.31422, -3.82595, -1.59090,  0.13477,  	  -0.01101, -0.08256,   -1.40906, 2.63889, -1.13311,  0.11344,  	  67.15805, 60.00000, 0.00000,     	 0.52333, 0.32710,   20.46244,  0.20000, 0.20000,  0.10000, 0.10000,      3,3,3    
1.8,   -0.00742, 0.04209,   -0.32392, -3.75014, -1.54797,  0.13670,  	  -0.01181, -0.07709,   -1.38604, 2.71009, -1.18075,  0.11709,  	  67.03965, 60.00000, 0.00000,     	 0.52466, 0.29637,   20.62624,  0.20000, 0.20000,  0.10000, 0.10000,      3,3,3    
1.8,   -0.00699, 0.04488,   -0.34742, -3.66558, -1.54689,  0.13477,  	  -0.01259, -0.08028,   -1.39725, 2.77586, -1.18941,  0.10547,  	  66.99361, 60.00000, 0.00000,     	 0.52859, 0.30344,   20.55406,  0.20000, 0.20000,  0.10000, 0.10000,      3,3,3    
1.9,   -0.00653, 0.04759,   -0.38152, -3.55013, -1.57287,  0.14059,  	  -0.01339, -0.07914,   -1.37270, 2.86484, -1.21924,  0.08605,  	  66.85598, 60.00000, 0.00000,     	 0.53349, 0.32283,   20.40341,  0.20000, 0.20000,  0.10000, 0.10000,      3,3,3    
1.9,   -0.00603, 0.05243,   -0.43418, -3.46812, -1.54271,  0.15033,  	  -0.01416, -0.07268,   -1.30746, 2.91345, -1.24302,  0.08205,  	  66.75068, 60.00000, 0.00000,     	 0.53781, 0.33222,   20.31412,  0.20000, 0.20000,  0.10000, 0.10000,      3,3,3    
1.9,   -0.00548, 0.05683,   -0.45374, -3.42240, -1.54458,  0.15033,  	  -0.01489, -0.06953,   -1.26043, 2.93667, -1.28227,  0.07613,  	  66.70012, 60.00000, 0.00000,     	 0.54307, 0.34954,   20.17214,  0.20000, 0.20000,  0.10000, 0.10000,      3,3,3    
1.9,   -0.00491, 0.05729,   -0.46697, -3.29839, -1.52750,  0.14453,  	  -0.01559, -0.07120,   -1.30072, 2.99532, -1.29516,  0.07426,  	  66.62446, 60.00000, 0.00000,     	 0.54771, 0.35963,   20.07699,  0.20000, 0.20000,  0.10000, 0.10000,      3,3,3    
1.9,   -0.00434, 0.05522,   -0.46988, -3.21393, -1.52246,  0.13678,  	  -0.01628, -0.06680,   -1.27458, 3.03462, -1.28724,  0.06840,  	  66.59552, 60.00000, 0.00000,     	 0.54945, 0.33172,   20.22115,  0.20000, 0.20000,  0.10000, 0.10000,      3,3,3    
1.9,   -0.00380, 0.05443,   -0.44822, -3.14421, -1.50392,  0.13479,  	  -0.01693, -0.06358,   -1.24831, 3.07402, -1.27883,  0.07607,  	  66.51967, 60.00000, 0.00000,     	 0.55146, 0.31264,   20.31549,  0.20000, 0.20000,  0.10000, 0.10000,      3,3,3    
1.9,   -0.00327, 0.04971,   -0.42318, -3.06586, -1.52237,  0.13084,  	  -0.01758, -0.06264,   -1.26697, 3.10933, -1.27481,  0.06643,  	  66.49472, 60.00000, 0.00000,     	 0.55297, 0.28697,   20.44949,  0.20000, 0.20000,  0.10000, 0.10000,      3,3,3    
1.9,   -0.00277, 0.04811,   -0.40291, -2.99603, -1.51094,  0.12305,  	  -0.01821, -0.06052,   -1.25064, 3.14825, -1.27305,  0.07412,  	  66.42486, 60.00000, 0.00000,     	 0.55630, 0.28688,   20.42287,  0.20000, 0.20000,  0.10000, 0.10000,      3,3,3    
1.9,   -0.00231, 0.04450,   -0.41459, -2.92730, -1.51230,  0.11918,  	  -0.01883, -0.05850,   -1.26519, 3.18550, -1.24374,  0.07221,  	  66.39971, 60.00000, 0.00000,     	 0.55532, 0.23269,   20.73960,  0.20000, 0.20000,  0.10000, 0.10000,      3,3,3    
1.9,   -0.00188, 0.04265,   -0.38193, -2.86094, -1.50208,  0.11137,  	  -0.01943, -0.06197,   -1.30169, 3.23076, -1.23445,  0.08000,  	  66.31409, 60.00000, 0.00000,     	 0.55632, 0.21301,   20.84376,  0.20000, 0.20000,  0.10000, 0.10000,      3,3,3    
2.0,   -0.00147, 0.03696,   -0.37750, -2.80037, -1.53145,  0.10939,  	  -0.02006, -0.06220,   -1.35216, 3.27239, -1.21744,  0.08395,  	  66.22266, 60.00000, 0.00000,     	 0.55545, 0.17090,   21.09110,  0.20000, 0.20000,  0.10000, 0.10000,      3,3,3    
2.0,   -0.00111, 0.03630,   -0.38153, -2.76405, -1.54171,  0.10357,  	  -0.02070, -0.06654,   -1.38026, 3.29683, -1.20145,  0.08592,  	  66.17799, 60.00000, 0.00000,     	 0.55741, 0.17173,   21.07079,  0.20000, 0.20000,  0.10000, 0.10000,      3,3,3    
2.0,   -0.00077, 0.03141,   -0.36193, -2.67583, -1.55426,  0.09771,  	  -0.02137, -0.07118,   -1.46204, 3.37265, -1.18985,  0.08799,  	  66.09194, 60.00000, 0.00000,     	 0.55907, 0.16849,   21.07653,  0.20000, 0.20000,  0.10000, 0.10000,      3,3,3    
2.0,   -0.00047, 0.02731,   -0.32190, -2.64941, -1.56737,  0.08022,  	  -0.02207, -0.06867,   -1.44855, 3.39907, -1.16997,  0.09568,  	  66.05084, 60.00000, 0.00000,     	 0.56045, 0.16267,   21.09820,  0.20000, 0.20000,  0.10000, 0.10000,      3,3,3    
2.0,   -0.00024, 0.01960,   -0.26169, -2.58065, -1.56875,  0.07430,  	  -0.02275, -0.07032,   -1.49478, 3.47885, -1.12227,  0.10156,  	  65.96815, 60.00000, 0.00000,     	 0.56234, 0.16451,   21.07276,  0.20000, 0.20000,  0.10000, 0.10000,      3,3,3    
2.0,   -0.00007, 0.01568,   -0.24068, -2.54210, -1.58408,  0.07230,  	  -0.02345, -0.06901,   -1.50194, 3.53777, -1.09348,  0.10156,  	  65.93216, 60.00000, 0.00000,     	 0.56318, 0.15199,   21.13723,  0.20000, 0.20000,  0.10000, 0.10000,      3,3,3    
2.0,   0.00007, 0.01128,   -0.19504, -2.50221, -1.59067,  0.06641,  	  -0.02414, -0.06738,   -1.51126, 3.59836, -1.08341,  0.10736,  	  65.84570, 60.00000, 0.00000,     	 0.56454, 0.14665,   21.15671,  0.20000, 0.20000,  0.10000, 0.10000,      3,3,3    
2.0,   0.00017, 0.00897,   -0.19188, -2.46941, -1.59871,  0.05285,  	  -0.02482, -0.06946,   -1.54094, 3.65371, -1.05865,  0.10354,  	  65.80390, 60.00000, 0.00000,     	 0.56640, 0.14812,   21.13357,  0.20000, 0.20000,  0.10000, 0.10000,      3,3,3    
2.0,   0.00023, 0.00553,   -0.15194, -2.45245, -1.59629,  0.05664,  	  -0.02551, -0.06413,   -1.50386, 3.68237, -1.03118,  0.09572,  	  65.75672, 60.00000, 0.00000,     	 0.56873, 0.15505,   21.07483,  0.20000, 0.20000,  0.10000, 0.10000,      3,3,3    
2.0,   0.00029, 0.00285,   -0.10352, -2.40194, -1.58104,  0.04881,  	  -0.02615, -0.06395,   -1.51457, 3.76653, -1.04353,  0.09379,  	  65.65431, 60.00000, 0.00000,     	 0.57306, 0.18917,   20.84538,  0.20000, 0.20000,  0.10000, 0.10000,      3,3,3    
2.1,   0.00032, 0.00186,   -0.10558, -2.37864, -1.57280,  0.04107,  	  -0.02678, -0.06082,   -1.52053, 3.82388, -1.02349,  0.08605,  	  65.61227, 60.00000, 0.00000,     	 0.57474, 0.18476,   20.85697,  0.20000, 0.20000,  0.10000, 0.10000,      3,3,3    
2.1,   0.00033, -0.00051,   -0.04916, -2.36151, -1.54913,  0.03904,  	  -0.02736, -0.05462,   -1.45308, 3.86964, -1.01341,  0.08785,  	  65.51029, 60.00000, 0.00000,     	 0.57842, 0.20663,   20.70189,  0.20000, 0.20000,  0.10000, 0.10000,      3,3,3    
2.1,   0.00031, -0.00291,   -0.01928, -2.34021, -1.54254,  0.03125,  	  -0.02791, -0.05012,   -1.04422, 3.91727, 1.00632,  0.08009,  	  65.46854, 60.00000, 0.00000,     	 0.57943, 0.19018,   20.78424,  0.20000, 0.20000,  0.10000, 0.10000,      3,3,3    
2.1,   0.00028, -0.00419,   -0.00171, -2.31853, -1.53278,  0.02740,  	  -0.02842, -0.04989,   -1.03642, 3.96513, 1.01835,  0.07818,  	  65.41714, 60.00000, 0.00000,     	 0.58394, 0.22058,   20.57451,  0.20000, 0.20000,  0.10000, 0.10000,      3,3,3    
2.1,   0.00023, -0.00355,   0.00314, -2.31311, -1.51415,  0.02207,  	  -0.02891, -0.04541,   -0.99693, 3.98613, 1.02775,  0.06328,  	  65.36992, 60.00000, 0.00000,     	 0.58726, 0.23127,   20.48643,  0.20000, 0.20000,  0.10000, 0.10000,      3,3,3    
2.1,   0.00019, -0.00292,   0.03232, -2.29025, -1.46689,  0.01957,  	  -0.02932, -0.03842,   -0.94693, 4.03500, 1.02409,  0.05475,  	  65.28365, 60.00000, 0.00000,     	 0.58942, 0.22568,   20.50054,  0.20000, 0.20000,  0.10000, 0.10000,      3,3,3    
2.1,   0.00017, 0.00065,   0.03348, -2.28271, -1.45432,  0.02342,  	  -0.02969, -0.03017,   -0.84709, 4.06536, 1.01869,  0.03926,  	  65.24210, 60.00000, 0.00000,     	 0.59270, 0.23397,   20.42616,  0.20000, 0.20000,  0.10000, 0.10000,      3,3,3    
2.1,   0.00019, 0.00393,   0.04234, -2.26614, -1.38950,  0.02344,  	  -0.02996, -0.02392,   -1.20951, 4.08517, -1.02221,  0.03320,  	  65.15658, 60.00000, 0.00000,     	 0.59480, 0.22637,   20.45481,  0.20000, 0.20000,  0.10000, 0.10000,      3,3,3    
2.1,   0.00023, 0.00431,   0.05319, -2.25574, -1.37855,  0.02342,  	  -0.03019, -0.02124,   -1.19340, 4.10126, -1.02734,  0.02736,  	  65.07476, 60.00000, 0.00000,     	 0.59650, 0.21493,   20.50599,  0.20000, 0.20000,  0.10000, 0.10000,      3,3,3    
2.1,   0.00027, 0.00729,   0.03400, -2.24067, -1.36323,  0.02537,  	  -0.03039, -0.01720,   -1.13651, 4.11947, -1.03277,  0.01766,  	  65.03975, 60.00000, 0.00000,     	 0.59863, 0.21287,   20.50009,  0.20000, 0.20000,  0.10000, 0.10000,      3,3,3    
2.2,   0.00036, 0.01278,   0.02296, -2.22893, -1.34044,  0.02734,  	  -0.03056, -0.01002,   -1.03874, 4.12002, -1.05379,  -0.01353,  	  64.96223, 60.00000, 0.00000,     	 0.60042, 0.20654,   20.52094,  0.20000, 0.20000,  0.10000, 0.10000,      3,3,3    
2.2,   0.00051, 0.02211,   0.01279, -2.21698, -1.26508,  0.03125,  	  -0.03060, 0.00639,   -0.85327, 4.10277, -1.09574,  -0.03502,  	  64.94380, 60.00000, 0.00000,     	 0.59961, 0.16868,   20.74203,  0.20000, 0.20000,  0.10000, 0.10000,      3,3,3    
2.2,   0.00074, 0.02170,   0.46680, -2.20004, 0.81454,  0.03117,  	  -0.03052, 0.01015,   -0.87905, 4.08120, -1.15189,  -0.03510,  	  64.87894, 60.00000, 0.00000,     	 0.60236, 0.17930,   20.66012,  0.20000, 0.20000,  0.10000, 0.10000,      3,3,3    
2.2,   0.00098, 0.02911,   0.41319, -2.18062, 0.82234,  0.02934,  	  -0.03040, 0.01708,   -0.75817, 4.05211, -1.15265,  -0.04885,  	  64.86110, 60.00000, 0.00000,     	 0.60555, 0.19533,   20.54216,  0.20000, 0.20000,  0.10000, 0.10000,      3,3,3    
2.2,   0.00127, 0.03176,   0.43048, -2.16711, 0.86739,  0.02932,  	  -0.03021, 0.02422,   -0.68919, 4.01927, -1.17514,  -0.06637,  	  64.84319, 60.00000, 0.00000,     	 0.60765, 0.19493,   20.52717,  0.20000, 0.20000,  0.10000, 0.10000,      3,3,3    
2.2,   0.00162, 0.03673,   0.43103, -2.14488, 0.92469,  0.03133,  	  -0.02994, 0.02981,   -0.63930, 3.97647, -1.22483,  -0.07033,  	  64.77320, 60.00000, 0.00000,     	 0.61019, 0.19938,   20.48103,  0.20000, 0.20000,  0.10000, 0.10000,      3,3,3    
2.2,   0.00198, 0.03494,   0.47763, -2.13284, 0.93476,  0.02924,  	  -0.02964, 0.03584,   -0.59048, 3.93471, -1.21988,  -0.07039,  	  64.73027, 60.00000, 0.00000,     	 0.61317, 0.21007,   20.39599,  0.20000, 0.20000,  0.10000, 0.10000,      3,3,3    
2.2,   0.00231, 0.03019,   0.50101, -2.11932, 0.95101,  0.02533,  	  -0.02930, 0.03339,   -0.62319, 3.89474, -1.21528,  -0.07805,  	  64.63095, 60.00000, 0.00000,     	 0.61350, 0.18450,   20.53919,  0.20000, 0.20000,  0.10000, 0.10000,      3,3,3    
2.2,   0.00263, 0.03341,   0.49191, -2.10319, 0.97577,  0.02150,  	  -0.02894, 0.03830,   -0.54937, 3.84784, -1.21198,  -0.08199,  	  64.56680, 60.00000, 0.00000,     	 0.61505, 0.17575,   20.57605,  0.20000, 0.20000,  0.10000, 0.10000,      3,3,3    
2.2,   0.00296, 0.03086,   0.51550, -2.08909, 0.99352,  0.01760,  	  -0.02855, 0.03938,   -0.54456, 3.80857, -1.21297,  -0.08195,  	  64.44223, 60.00000, 0.00000,     	 0.61779, 0.18104,   20.52383,  0.20000, 0.20000,  0.10000, 0.10000,      3,3,3    
2.3,   0.00327, 0.03178,   0.54701, -2.07831, 1.00055,  0.01172,  	  -0.02815, 0.04731,   -0.43811, 3.75865, -1.20244,  -0.09765,  	  64.35276, 60.00000, 0.00000,     	 0.61794, 0.15702,   20.65920,  0.20000, 0.20000,  0.10000, 0.10000,      3,3,3    
2.3,   0.00359, 0.03148,   0.59389, -2.06844, 1.08252,  0.00590,  	  -0.02765, 0.05483,   -0.39359, 3.70054, -1.21684,  -0.10355,  	  64.21305, 60.00000, 0.00000,     	 0.61860, 0.14053,   20.74783,  0.20000, 0.20000,  0.10000, 0.10000,      3,3,3    
2.3,   0.00390, 0.03222,   0.60142, -2.06802, 1.10872,  0.00779,  	  -0.02708, 0.05844,   -0.35201, 3.64487, -1.21352,  -0.10164,  	  64.06336, 60.00000, 0.00000,     	 0.61901, 0.12148,   20.85288,  0.20000, 0.20000,  0.10000, 0.10000,      3,3,3    
2.3,   0.00422, 0.03360,   0.56736, -2.06305, 1.10166,  0.00978,  	  -0.02652, 0.05502,   -0.36330, 3.61591, -1.21435,  -0.10160,  	  63.98869, 60.00000, 0.00000,     	 0.61921, 0.10297,   20.95657,  0.20000, 0.20000,  0.10000, 0.10000,      3,3,3    
2.3,   0.00455, 0.03428,   0.54249, -2.04857, 1.10106,  0.02090,  	  -0.02598, 0.05096,   -0.39678, 3.56049, -1.22661,  -0.09238,  	  63.88388, 60.00000, 0.00000,     	 0.61996, 0.09287,   21.00800,  0.20000, 0.20000,  0.10000, 0.10000,      3,3,3    
2.3,   0.00490, 0.04158,   0.47644, -2.02974, 1.06327,  0.02537,  	  -0.02550, 0.05148,   -0.35472, 3.48250, -1.24630,  -0.10541,  	  63.81101, 60.00000, 0.00000,     	 0.62281, 0.10973,   20.88858,  0.20000, 0.20000,  0.10000, 0.10000,      3,3,3    
2.3,   0.00533, 0.04366,   0.48798, -2.00718, 1.09359,  0.02924,  	  -0.02498, 0.05441,   -0.32303, 3.42278, -1.28600,  -0.12098,  	  63.76881, 60.00000, 0.00000,     	 0.62461, 0.10902,   20.87805,  0.20000, 0.20000,  0.10000, 0.10000,      3,3,3    
2.3,   0.00578, 0.04457,   0.48805, -1.99116, 1.13052,  0.02348,  	  -0.02443, 0.05567,   -0.29815, 3.35916, -1.31678,  -0.11137,  	  63.73991, 60.00000, 0.00000,     	 0.62384, 0.07562,   21.07442,  0.20000, 0.20000,  0.10000, 0.10000,      3,3,3    
2.3,   0.00623, 0.04547,   0.50078, -1.97900, 1.13952,  0.02342,  	  -0.02386, 0.05992,   -0.23678, 3.29422, -1.31376,  -0.12496,  	  63.62563, 60.00000, 0.00000,     	 0.62667, 0.08980,   20.97065,  0.20000, 0.20000,  0.10000, 0.10000,      3,3,3    
2.3,   0.00671, 0.05177,   0.48344, -1.96086, 1.17550,  0.02541,  	  -0.02323, 0.06737,   -0.16099, 3.21541, -1.32938,  -0.13277,  	  63.57421, 60.00000, 0.00000,     	 0.63000, 0.11025,   20.82713,  0.20000, 0.20000,  0.10000, 0.10000,      3,3,3    
