time,x,vx,u0,roll,roll_sp,gx,y,vy,u1,pitch,pitch_sp,gy,yaw,yaw_sp,u2,z,vz,tm,rollgain,pitchgain,gxgain,gygain,s0,s1,s2
0.0,   -0.00000, 0.00001,   0.04870, -1.24458, -1.00339,  0.00000,  	  -0.00000, -0.00003,   0.31812, -0.60187, 1.00286,  0.00000,  	  109.13403, 60.00000, 0.00000,     	 -0.00970, -0.11373,   27.28370,  0.20000, 0.20000,  0.10000, 0.10000,      3,3,3    
0.0,   -0.00000, 0.00000,   0.21202, -1.24458, -0.14142,  0.00000,  	  -0.00000, 0.00009,   0.28608, -0.60187, 0.82570,  0.00000,  	  109.13403, 60.00000, 0.00000,     	 -0.01455, -0.16012,   27.58727,  0.20000, 0.20000,  0.10000, 0.10000,      3,3,3    
0.0,   -0.00000, 0.00001,   0.44895, -1.24458, 1.00322,  0.00000,  	  -0.00000, 0.00004,   0.27298, -0.60187, 0.76120,  0.00000,  	  109.13403, 60.00000, 0.00000,     	 -0.01376, -0.12982,   27.40887,  0.20000, 0.20000,  0.10000, 0.10000,      3,3,3    
0.0,   -0.00000, -0.00004,   0.44944, -1.24458, 1.00271,  0.00000,  	  0.00000, -0.00000,   0.31583, -0.60187, 0.99899,  0.00000,  	  109.13403, 60.00000, 0.00000,     	 -0.01507, -0.12904,   27.41525,  0.20000, 0.20000,  0.10000, 0.10000,      3,3,3    
0.1,   -0.00000, -0.00003,   0.44888, -1.24473, 1.00274,  0.00000,  	  0.00000, -0.00000,   0.30244, -0.60167, 0.90578,  0.00000,  	  109.12427, 60.00000, 0.00000,     	 -0.01239, -0.07841,   27.10507,  0.20000, 0.20000,  0.10000, 0.10000,      3,3,3    
0.1,   -0.00000, -0.00008,   0.24245, -1.24473, -0.08584,  0.00000,  	  -0.00000, 0.00003,   0.32091, -0.60167, 1.00316,  0.00000,  	  109.12427, 60.00000, 0.00000,     	 -0.01425, -0.09305,   27.20302,  0.20000, 0.20000,  0.10000, 0.10000,      3,3,3    
0.1,   -0.00000, 0.00005,   0.06127, -1.24473, -1.00341,  0.00000,  	  -0.00000, -0.00021,   0.03744, -0.60167, -0.48910,  0.00000,  	  109.12427, 60.00000, 0.00000,     	 -0.01214, -0.05415,   26.96374,  0.20000, 0.20000,  0.10000, 0.10000,      3,3,3    
0.1,   -0.00000, -0.00030,   0.24606, -1.24473, 0.03747,  0.00000,  	  -0.00000, -0.00008,   -0.08017, -0.60167, -1.00406,  0.00000,  	  109.12427, 60.00000, 0.00000,     	 -0.01307, -0.05986,   27.00410,  0.20000, 0.20000,  0.10000, 0.10000,      3,3,3    
0.1,   -0.00000, -0.00017,   0.04878, -1.24473, -1.00331,  0.00000,  	  -0.00001, -0.00020,   0.26952, -0.60167, 0.73762,  0.00000,  	  109.12427, 60.00000, 0.00000,     	 -0.01009, -0.01456,   26.72197,  0.20000, 0.20000,  0.10000, 0.10000,      3,3,3    
0.1,   -0.00001, 0.00006,   0.35855, -1.24067, 0.63399,  0.00000,  	  -0.00000, 0.00020,   0.31995, -0.59596, 1.00449,  0.00000,  	  109.12409, 60.00000, 0.00000,     	 -0.00793, 0.01358,   26.54494,  0.20000, 0.20000,  0.10000, 0.10000,      3,3,3    
0.1,   -0.00000, -0.00016,   0.04615, -1.24067, -1.00394,  0.00390,  	  -0.00001, -0.00030,   -0.03407, -0.59596, -0.87359,  -0.00195,  	  109.12409, 60.00000, 0.00000,     	 -0.00892, -0.00293,   26.64605,  0.20000, 0.20000,  0.10000, 0.10000,      3,3,3    
0.1,   -0.00001, -0.00009,   0.01401, -1.24067, -1.00314,  0.00586,  	  -0.00001, 0.00002,   0.13045, -0.59596, 0.01436,  0.00000,  	  109.12409, 60.00000, 0.00000,     	 -0.00531, 0.04231,   26.35926,  0.20000, 0.20000,  0.10000, 0.10000,      3,3,3    
0.1,   -0.00000, -0.00013,   0.39755, -1.24067, 0.77797,  -0.00195,  	  -0.00001, -0.00002,   -0.03921, -0.59596, -1.00428,  -0.00391,  	  109.12409, 60.00000, 0.00000,     	 -0.00259, 0.07180,   26.16995,  0.20000, 0.20000,  0.10000, 0.10000,      3,3,3    
0.1,   -0.00000, -0.00008,   0.06427, -1.24487, -1.00378,  -0.00001,  	  -0.00001, -0.00015,   -0.05990, -0.60146, -1.00424,  -0.00001,  	  109.11450, 60.00000, 0.00000,     	 -0.00382, 0.04891,   26.30952,  0.20000, 0.20000,  0.10000, 0.10000,      3,3,3    
0.2,   -0.00000, 0.00004,   0.07176, -1.24487, -1.00330,  -0.00391,  	  -0.00001, -0.00005,   0.25730, -0.60146, 1.00326,  0.00976,  	  109.11450, 60.00000, 0.00000,     	 -0.00282, 0.05424,   26.27135,  0.20000, 0.20000,  0.10000, 0.10000,      3,3,3    
0.2,   -0.00000, 0.00007,   0.04701, -1.24082, -1.00307,  0.00000,  	  -0.00001, -0.00005,   0.04718, -0.59576, -0.39575,  0.00001,  	  109.11432, 60.00000, 0.00000,     	 -0.00268, 0.04858,   26.30212,  0.20000, 0.20000,  0.10000, 0.10000,      3,3,3    
0.2,   -0.00000, 0.00013,   0.02968, -1.25057, -1.00322,  0.00390,  	  -0.00001, -0.00006,   -0.01646, -0.59740, -0.77515,  -0.00390,  	  109.11448, 60.00000, 0.00000,     	 -0.00183, 0.05411,   26.26372,  0.20000, 0.20000,  0.10000, 0.10000,      3,3,3    
0.2,   -0.00000, 0.00005,   0.09803, -1.24487, -0.68260,  0.00195,  	  -0.00001, 0.00025,   0.34461, -0.60146, 1.00433,  -0.00781,  	  109.11450, 60.00000, 0.00000,     	 0.00044, 0.07569,   26.12304,  0.20000, 0.20000,  0.10000, 0.10000,      3,3,3    
0.2,   -0.00000, 0.00041,   0.17561, -1.25462, -0.51297,  -0.00196,  	  -0.00001, -0.00008,   0.19112, -0.60311, 0.39467,  0.00194,  	  109.11465, 60.00000, 0.00000,     	 0.00029, 0.06468,   26.18663,  0.20000, 0.20000,  0.10000, 0.10000,      3,3,3    
0.2,   -0.00000, -0.00027,   0.13899, -1.25462, -0.53799,  -0.00000,  	  -0.00001, 0.00012,   -0.09198, -0.60311, -1.00425,  0.00196,  	  109.11465, 60.00000, 0.00000,     	 0.00155, 0.07015,   26.14515,  0.20000, 0.20000,  0.10000, 0.10000,      3,3,3    
0.2,   -0.00000, 0.00006,   0.41908, -1.25057, 1.00331,  0.00585,  	  -0.00001, 0.00009,   0.27583, -0.59740, 1.00347,  0.00781,  	  109.11448, 60.00000, 0.00000,     	 0.00119, 0.05728,   26.22229,  0.20000, 0.20000,  0.10000, 0.10000,      3,3,3    
0.2,   -0.00000, -0.00013,   0.46074, -1.25054, 1.00434,  -0.00195,  	  -0.00001, 0.00029,   0.29843, -0.59723, 1.00416,  0.00196,  	  109.10877, 60.00000, 0.00000,     	 0.00003, 0.03737,   26.34527,  0.20000, 0.20000,  0.10000, 0.10000,      3,3,3    
0.2,   -0.00001, -0.00024,   0.25753, -1.25054, 0.14894,  0.00585,  	  -0.00001, -0.00015,   0.30817, -0.59723, 1.00290,  0.00196,  	  109.10877, 60.00000, 0.00000,     	 0.00188, 0.05637,   26.22148,  0.20000, 0.20000,  0.10000, 0.10000,      3,3,3    
0.2,   -0.00001, -0.00008,   0.06169, -1.25071, -1.00372,  -0.00196,  	  -0.00001, -0.00019,   0.32957, -0.59720, 0.82177,  -0.00781,  	  109.10472, 60.00000, 0.00000,     	 0.00284, 0.06076,   26.18858,  0.20000, 0.20000,  0.10000, 0.10000,      3,3,3    
0.3,   -0.00001, -0.00007,   0.41927, -1.25068, 1.00447,  0.00196,  	  -0.00001, 0.00006,   -0.11437, -0.59702, -1.00389,  0.00976,  	  109.09901, 60.00000, 0.00000,     	 0.00446, 0.07323,   26.10476,  0.20000, 0.20000,  0.10000, 0.10000,      3,3,3    
0.3,   -0.00001, -0.00001,   0.05731, -1.24663, -1.00446,  0.00195,  	  -0.00001, -0.00028,   0.29561, -0.59132, 1.00365,  0.00196,  	  109.09884, 60.00000, 0.00000,     	 0.00289, 0.04334,   26.28730,  0.20000, 0.20000,  0.10000, 0.10000,      3,3,3    
0.3,   -0.00001, -0.00018,   0.03632, -1.24648, -1.00372,  0.00196,  	  -0.00001, 0.00014,   0.30675, -0.59153, 1.00378,  0.00196,  	  109.10860, 60.00000, 0.00000,     	 0.00511, 0.06617,   26.13927,  0.20000, 0.20000,  0.10000, 0.10000,      3,3,3    
0.3,   -0.00001, 0.00001,   0.41375, -1.24648, 1.00349,  0.00586,  	  -0.00001, 0.00014,   -0.02940, -0.59153, -1.00347,  -0.00586,  	  109.10860, 60.00000, 0.00000,     	 0.00644, 0.07471,   26.08020,  0.20000, 0.20000,  0.10000, 0.10000,      3,3,3    
0.3,   -0.00001, 0.00011,   0.43728, -1.24079, 1.00443,  0.00196,  	  -0.00001, 0.00023,   0.22873, -0.59558, 0.27962,  -0.01172,  	  109.10862, 60.00000, 0.00000,     	 0.00990, 0.10737,   25.86643,  0.20000, 0.20000,  0.10000, 0.10000,      3,3,3    
0.3,   -0.00001, -0.00002,   0.43475, -1.25054, 0.79884,  -0.00391,  	  -0.00000, 0.00036,   0.02129, -0.59723, -0.30590,  0.00585,  	  109.10877, 60.00000, 0.00000,     	 0.01313, 0.13257,   25.69652,  0.20000, 0.20000,  0.10000, 0.10000,      3,3,3    
0.3,   -0.00001, -0.00032,   0.50497, -1.25626, 1.00358,  -0.00976,  	  0.00000, 0.00006,   -0.11714, -0.59335, -1.00352,  0.00781,  	  109.11444, 60.00000, 0.00000,     	 0.01535, 0.14405,   25.61353,  0.20000, 0.20000,  0.10000, 0.10000,      3,3,3    
0.3,   -0.00002, -0.00116,   0.06120, -1.26196, -1.00384,  0.00195,  	  -0.00000, -0.00000,   0.28503, -0.58929, 1.00614,  0.00586,  	  109.11440, 60.00000, 0.00000,     	 0.01582, 0.13456,   25.66299,  0.20000, 0.20000,  0.10000, 0.10000,      3,3,3    
0.3,   -0.00004, -0.00101,   0.37768, -1.25788, 1.00426,  0.00976,  	  0.00000, 0.00040,   0.32821, -0.58341, 1.01020,  -0.00195,  	  109.10854, 60.00000, 0.00000,     	 0.01614, 0.12245,   25.73013,  0.20000, 0.20000,  0.10000, 0.10000,      3,3,3    
0.3,   -0.00006, -0.00075,   0.37382, -1.25791, 1.00562,  0.01367,  	  0.00001, 0.00058,   0.29834, -0.58359, 1.00886,  0.00390,  	  109.11423, 60.00000, 0.00000,     	 0.01857, 0.13954,   25.61298,  0.20000, 0.20000,  0.10000, 0.10000,      3,3,3    
0.4,   -0.00007, -0.00059,   0.36976, -1.24802, 1.00296,  0.01368,  	  0.00001, 0.00013,   0.33084, -0.58215, 1.00822,  -0.00196,  	  109.12385, 60.00000, 0.00000,     	 0.02008, 0.14487,   25.57047,  0.20000, 0.20000,  0.10000, 0.10000,      3,3,3    
0.4,   -0.00008, -0.00101,   0.31519, -1.24217, 0.66067,  0.01172,  	  0.00001, -0.00047,   -0.12744, -0.58641, -1.00294,  0.01171,  	  109.13364, 60.00000, 0.00000,     	 0.02285, 0.16095,   25.45592,  0.20000, 0.20000,  0.10000, 0.10000,      3,3,3    
0.4,   -0.00009, -0.00003,   0.05713, -1.24385, -1.00341,  -0.00194,  	  0.00001, -0.00075,   0.21643, -0.57682, 1.00466,  0.01757,  	  109.13915, 60.00000, 0.00000,     	 0.02465, 0.16819,   25.39983,  0.20000, 0.20000,  0.10000, 0.10000,      3,3,3    
0.4,   -0.00009, -0.00053,   0.10194, -1.24536, -1.00639,  -0.00976,  	  -0.00000, -0.00048,   0.31201, -0.56727, 1.00476,  0.00001,  	  109.14869, 60.00000, 0.00000,     	 0.02698, 0.17833,   25.32354,  0.20000, 0.20000,  0.10000, 0.10000,      3,3,3    
0.4,   -0.00010, -0.00052,   0.06350, -1.25317, -1.00549,  -0.00196,  	  -0.00001, -0.00003,   0.46025, -0.57909, 1.00506,  -0.02538,  	  109.16857, 60.00000, 0.00000,     	 0.02672, 0.15358,   25.46696,  0.20000, 0.20000,  0.10000, 0.10000,      3,3,3    
0.4,   -0.00010, -0.00070,   0.31881, -1.24962, 1.00551,  0.01953,  	  -0.00001, 0.00072,   0.53257, -0.59920, 1.00470,  -0.03711,  	  109.19421, 60.00000, 0.00000,     	 0.02857, 0.15788,   25.42816,  0.20000, 0.20000,  0.10000, 0.10000,      3,3,3    
0.4,   -0.00012, 0.00001,   0.22701, -1.23170, 1.00714,  0.03905,  	  -0.00000, 0.00045,   0.32016, -0.61293, 1.00906,  0.00193,  	  109.26426, 60.00000, 0.00000,     	 0.02717, 0.12638,   25.61796,  0.20000, 0.20000,  0.10000, 0.10000,      3,3,3    
0.4,   -0.00012, -0.00029,   -0.18375, -1.20952, -1.00417,  0.04296,  	  -0.00001, -0.00083,   0.17900, -0.62185, -0.78370,  -0.03513,  	  109.37078, 60.00000, 0.00000,     	 0.02571, 0.10192,   25.76873,  0.20000, 0.20000,  0.10000, 0.10000,      3,3,3    
0.4,   -0.00012, -0.00042,   0.08239, -1.17973, 1.01217,  0.05860,  	  0.00001, 0.00184,   -0.01329, -0.64439, -1.00617,  -0.00588,  	  109.47586, 60.00000, 0.00000,     	 0.02425, 0.07857,   25.91329,  0.20000, 0.20000,  0.10000, 0.10000,      3,3,3    
0.4,   -0.00012, 0.00134,   0.18389, -1.14897, 1.01026,  0.04297,  	  0.00002, 0.00006,   -0.10871, -0.64220, -1.00289,  0.00977,  	  109.60558, 60.00000, 0.00000,     	 0.02816, 0.12821,   25.59912,  0.20000, 0.20000,  0.10000, 0.10000,      3,3,3    
0.5,   -0.00010, 0.00127,   0.11411, -1.12054, 1.00726,  0.05468,  	  0.00003, 0.00093,   0.01736, -0.65542, -1.01445,  -0.01562,  	  109.73567, 60.00000, 0.00000,     	 0.02962, 0.14134,   25.51239,  0.20000, 0.20000,  0.10000, 0.10000,      3,3,3    
0.5,   -0.00009, 0.00079,   0.21461, -1.08823, 1.01168,  0.03517,  	  0.00005, 0.00059,   -0.18661, -0.66283, -1.01001,  0.02146,  	  109.86154, 60.00000, 0.00000,     	 0.03097, 0.15138,   25.44458,  0.20000, 0.20000,  0.10000, 0.10000,      3,3,3    
0.5,   -0.00007, 0.00186,   -0.13833, -1.06463, -1.00397,  0.02931,  	  0.00004, -0.00059,   -0.18764, -0.64722, -1.01025,  0.01954,  	  110.01625, 60.00000, 0.00000,     	 0.03070, 0.14119,   25.50469,  0.20000, 0.20000,  0.10000, 0.10000,      3,3,3    
0.5,   -0.00006, 0.00182,   -0.13659, -1.04952, -1.00240,  0.02539,  	  0.00005, -0.00006,   -0.33478, -0.64247, -1.00797,  0.04685,  	  110.14209, 60.00000, 0.00000,     	 0.03190, 0.14986,   25.44581,  0.20000, 0.20000,  0.10000, 0.10000,      3,3,3    
0.5,   -0.00004, 0.00124,   0.37565, -1.04305, 1.00393,  0.00196,  	  0.00005, -0.00101,   -0.39224, -0.61494, -1.00797,  0.05469,  	  110.30650, 60.00000, 0.00000,     	 0.02996, 0.11822,   25.64244,  0.20000, 0.20000,  0.10000, 0.10000,      3,3,3    
0.5,   -0.00002, 0.00141,   0.08581, -1.04654, -1.00982,  -0.01367,  	  0.00004, -0.00043,   -0.36496, -0.58897, -1.00981,  0.04883,  	  110.46129, 60.00000, 0.00000,     	 0.02877, 0.09728,   25.77069,  0.20000, 0.20000,  0.10000, 0.10000,      3,3,3    
0.5,   -0.00001, 0.00008,   0.18376, -1.05988, -1.01625,  -0.03124,  	  0.00002, -0.00348,   -0.54096, -0.56512, -1.00850,  0.08006,  	  110.62775, 60.00000, 0.00000,     	 0.03366, 0.15375,   25.41029,  0.20000, 0.20000,  0.10000, 0.10000,      3,3,3    
0.5,   -0.00000, -0.00015,   0.33357, -1.08614, -1.02748,  -0.05663,  	  -0.00002, -0.00426,   -0.22604, -0.52403, 1.00459,  0.08983,  	  110.81739, 60.00000, 0.00000,     	 0.03678, 0.18034,   25.23287,  0.20000, 0.20000,  0.10000, 0.10000,      3,3,3    
0.5,   -0.00000, -0.00078,   0.37539, -1.11451, -1.01807,  -0.06249,  	  -0.00005, -0.00447,   -0.70796, -0.47326, -1.00459,  0.10936,  	  111.00286, 60.00000, 0.00000,     	 0.03815, 0.18197,   25.21450,  0.20000, 0.20000,  0.10000, 0.10000,      3,3,3    
0.5,   -0.00001, -0.00102,   0.48038, -1.15444, -1.03071,  -0.08007,  	  -0.00010, -0.00763,   -0.42030, -0.41488, 1.00808,  0.12304,  	  111.19799, 60.00000, 0.00000,     	 0.04160, 0.20822,   25.03602,  0.20000, 0.20000,  0.10000, 0.10000,      3,3,3    
0.6,   -0.00001, -0.00011,   0.52374, -1.20030, -1.03877,  -0.08594,  	  -0.00016, -0.00219,   -0.38759, -0.35323, 1.00614,  0.11523,  	  111.41431, 60.00000, 0.00000,     	 0.04091, 0.17492,   25.23134,  0.20000, 0.20000,  0.10000, 0.10000,      3,3,3    
0.6,   -0.00002, -0.00204,   0.64524, -1.25024, -1.02929,  -0.10546,  	  -0.00019, -0.00793,   -0.54140, -0.29720, 1.00749,  0.14062,  	  111.61920, 60.00000, 0.00000,     	 0.04387, 0.19294,   25.10588,  0.20000, 0.20000,  0.10000, 0.10000,      3,3,3    
0.6,   -0.00003, -0.00123,   0.68639, -1.30982, -1.06015,  -0.11132,  	  -0.00028, -0.00789,   -0.61385, -0.21892, 1.01467,  0.15039,  	  111.86038, 60.00000, 0.00000,     	 0.04650, 0.20319,   25.02663,  0.20000, 0.20000,  0.10000, 0.10000,      3,3,3    
0.6,   -0.00004, -0.00346,   0.70251, -1.37927, -1.05410,  -0.11133,  	  -0.00037, -0.01479,   -0.61938, -0.14283, 1.01340,  0.14844,  	  112.10552, 60.00000, 0.00000,     	 0.05267, 0.25679,   24.67154,  0.20000, 0.20000,  0.10000, 0.10000,      3,3,3    
0.6,   -0.00007, -0.00272,   0.75971, -1.44537, -1.04668,  -0.11913,  	  -0.00047, -0.01170,   -0.70172, -0.06134, 1.01150,  0.16015,  	  112.35233, 60.00000, 0.00000,     	 0.05380, 0.23877,   24.76576,  0.20000, 0.20000,  0.10000, 0.10000,      3,3,3    
0.6,   -0.00010, -0.00281,   0.74487, -1.51167, -1.10465,  -0.11525,  	  -0.00062, -0.01416,   -0.69305, 0.01981, 1.02894,  0.15625,  	  112.60296, 60.00000, 0.00000,     	 0.06065, 0.29486,   24.39065,  0.20000, 0.20000,  0.10000, 0.10000,      3,3,3    
0.6,   -0.00012, -0.00274,   0.80503, -1.58800, -1.07883,  -0.12304,  	  -0.00075, -0.01175,   -0.70004, 0.09872, 1.01898,  0.15430,  	  112.85361, 60.00000, 0.00000,     	 0.06316, 0.29107,   24.39226,  0.20000, 0.20000,  0.10000, 0.10000,      3,3,3    
0.6,   -0.00015, -0.00231,   0.79719, -1.65301, -1.08118,  -0.11914,  	  -0.00087, -0.01017,   -0.65879, 0.16957, 1.01996,  0.14454,  	  113.10431, 60.00000, 0.00000,     	 0.06524, 0.27978,   24.43942,  0.20000, 0.20000,  0.10000, 0.10000,      3,3,3    
0.6,   -0.00016, -0.00168,   0.77104, -1.72425, -1.07028,  -0.11134,  	  -0.00097, -0.00920,   -0.71645, 0.24381, 1.01756,  0.15234,  	  113.36071, 60.00000, 0.00000,     	 0.06615, 0.25598,   24.56777,  0.20000, 0.20000,  0.10000, 0.10000,      3,3,3    
0.6,   -0.00018, -0.00355,   0.84757, -1.79014, -1.07174,  -0.12304,  	  -0.00108, -0.01715,   -0.79841, 0.31487, 1.01690,  0.16406,  	  113.58219, 60.00000, 0.00000,     	 0.07054, 0.27977,   24.39766,  0.20000, 0.20000,  0.10000, 0.10000,      3,3,3    
0.7,   -0.00020, -0.00174,   0.80140, -1.85437, -1.08741,  -0.11328,  	  -0.00122, -0.01055,   -0.79457, 0.40070, 1.01573,  0.16016,  	  113.82253, 60.00000, 0.00000,     	 0.07063, 0.24424,   24.59896,  0.20000, 0.20000,  0.10000, 0.10000,      3,3,3    
0.7,   -0.00022, -0.00197,   0.78749, -1.91711, -1.08351,  -0.10938,  	  -0.00134, -0.01285,   -0.77927, 0.47739, 1.01541,  0.15625,  	  114.03401, 60.00000, 0.00000,     	 0.07269, 0.23784,   24.61861,  0.20000, 0.20000,  0.10000, 0.10000,      3,3,3    
0.7,   -0.00024, -0.00260,   0.79436, -1.97997, -1.08049,  -0.10742,  	  -0.00146, -0.01669,   -0.81263, 0.55376, 1.01474,  0.15820,  	  114.24924, 60.00000, 0.00000,     	 0.07592, 0.24978,   24.52460,  0.20000, 0.20000,  0.10000, 0.10000,      3,3,3    
0.7,   -0.00026, -0.00263,   0.74499, -2.04322, -1.12333,  -0.09766,  	  -0.00164, -0.01816,   -0.78346, 0.62972, 1.02144,  0.15039,  	  114.47025, 60.00000, 0.00000,     	 0.08255, 0.30122,   24.17752,  0.20000, 0.20000,  0.10000, 0.10000,      3,3,3    
0.7,   -0.00028, -0.00250,   0.77211, -2.10682, -1.09639,  -0.09961,  	  -0.00180, -0.01628,   -0.75559, 0.70573, 1.01543,  0.14258,  	  114.68155, 60.00000, 0.00000,     	 0.08559, 0.30220,   24.14725,  0.20000, 0.20000,  0.10000, 0.10000,      3,3,3    
0.7,   -0.00030, -0.00214,   0.71584, -2.16251, -1.11100,  -0.08790,  	  -0.00197, -0.01705,   -0.72159, 0.76795, 1.01926,  0.13477,  	  114.89696, 60.00000, 0.00000,     	 0.09122, 0.33597,   23.90886,  0.20000, 0.20000,  0.10000, 0.10000,      3,3,3    
0.7,   -0.00032, -0.00129,   0.66301, -2.21477, -1.13541,  -0.07812,  	  -0.00215, -0.01697,   -0.73619, 0.83649, 1.01388,  0.13477,  	  115.09279, 60.00000, 0.00000,     	 0.09855, 0.38562,   23.56658,  0.20000, 0.20000,  0.10000, 0.10000,      3,3,3    
0.7,   -0.00033, -0.00071,   0.61775, -2.26516, -1.09029,  -0.06642,  	  -0.00230, -0.01767,   -0.70282, 0.89549, 1.01157,  0.12695,  	  115.27922, 60.00000, 0.00000,     	 0.10299, 0.39828,   23.45811,  0.20000, 0.20000,  0.10000, 0.10000,      3,3,3    
0.7,   -0.00033, 0.00025,   0.57769, -2.29978, -1.09323,  -0.05860,  	  -0.00245, -0.01524,   -0.91696, 0.95557, -0.15037,  0.12306,  	  115.37812, 60.00000, 0.00000,     	 0.10533, 0.38197,   23.53316,  0.20000, 0.20000,  0.10000, 0.10000,      3,3,3    
0.7,   -0.00032, 0.00038,   0.52940, -2.32867, -1.08435,  -0.04883,  	  -0.00257, -0.01151,   -1.02947, 1.01249, -1.00202,  0.10938,  	  115.45779, 60.00000, 0.00000,     	 0.10564, 0.34237,   23.75673,  0.20000, 0.20000,  0.10000, 0.10000,      3,3,3    
0.8,   -0.00031, 0.00106,   0.47438, -2.35549, -1.10598,  -0.03906,  	  -0.00270, -0.01282,   -0.95362, 1.06004, -1.00696,  0.09376,  	  115.52809, 60.00000, 0.00000,     	 0.11237, 0.38772,   23.44316,  0.20000, 0.20000,  0.10000, 0.10000,      3,3,3    
0.8,   -0.00030, 0.00184,   0.40836, -2.37631, -1.07473,  -0.02540,  	  -0.00281, -0.00985,   -0.90459, 1.10400, -1.00556,  0.08399,  	  115.59259, 60.00000, 0.00000,     	 0.11320, 0.35545,   23.61967,  0.20000, 0.20000,  0.10000, 0.10000,      3,3,3    
0.8,   -0.00028, 0.00198,   0.37808, -2.40133, -1.07789,  -0.01954,  	  -0.00290, -0.00907,   -0.85600, 1.13965, -1.00913,  0.07422,  	  115.72928, 60.00000, 0.00000,     	 0.11663, 0.35994,   23.56597,  0.20000, 0.20000,  0.10000, 0.10000,      3,3,3    
0.8,   -0.00025, 0.00240,   0.30145, -2.40467, -1.06841,  -0.00586,  	  -0.00298, -0.00653,   -0.77455, 1.17037, -1.01574,  0.05860,  	  115.85437, 60.00000, 0.00000,     	 0.11882, 0.34687,   23.62199,  0.20000, 0.20000,  0.10000, 0.10000,      3,3,3    
0.8,   -0.00022, 0.00242,   0.24705, -2.40590, -1.05634,  0.00391,  	  -0.00304, -0.00448,   -0.65791, 1.19209, -1.02041,  0.03712,  	  115.96047, 60.00000, 0.00000,     	 0.12207, 0.34981,   23.57812,  0.20000, 0.20000,  0.10000, 0.10000,      3,3,3    
0.8,   -0.00020, 0.00249,   0.18333, -2.40497, -1.04678,  0.01562,  	  -0.00307, -0.00195,   -0.57094, 1.20449, -1.01779,  0.02150,  	  116.05724, 60.00000, 0.00000,     	 0.12333, 0.32656,   23.69988,  0.20000, 0.20000,  0.10000, 0.10000,      3,3,3    
0.8,   -0.00017, 0.00418,   0.11606, -2.39205, -1.03212,  0.02734,  	  -0.00309, 0.00032,   -0.48229, 1.20965, -1.01951,  0.00587,  	  116.14835, 60.00000, 0.00000,     	 0.12879, 0.36150,   23.45631,  0.20000, 0.20000,  0.10000, 0.10000,      3,3,3    
0.8,   -0.00012, 0.00457,   0.43981, -2.37680, 0.98777,  0.04101,  	  -0.00307, 0.00161,   -0.47774, 1.20602, -1.02584,  0.00585,  	  116.21458, 60.00000, 0.00000,     	 0.13217, 0.36415,   23.41446,  0.20000, 0.20000,  0.10000, 0.10000,      3,3,3    
0.8,   -0.00007, 0.00513,   0.40313, -2.36155, 0.98820,  0.04687,  	  -0.00306, 0.00248,   -0.41718, 1.20241, -1.03448,  -0.00585,  	  116.28079, 60.00000, 0.00000,     	 0.13582, 0.36919,   23.35590,  0.20000, 0.20000,  0.10000, 0.10000,      3,3,3    
0.8,   -0.00001, 0.00704,   0.30052, -2.33060, 1.00340,  0.06444,  	  -0.00302, 0.00549,   -0.35915, 1.19787, -1.03969,  -0.01562,  	  116.33152, 60.00000, 0.00000,     	 0.14049, 0.38792,   23.21101,  0.20000, 0.20000,  0.10000, 0.10000,      3,3,3    
0.9,   0.00006, 0.00638,   0.20461, -2.29131, 1.01002,  0.08007,  	  -0.00296, 0.00605,   -0.29955, 1.18019, -1.03825,  -0.02539,  	  116.37675, 60.00000, 0.00000,     	 0.13929, 0.32967,   23.55205,  0.20000, 0.20000,  0.10000, 0.10000,      3,3,3    
0.9,   0.00013, 0.00933,   0.16195, -2.24242, 1.02242,  0.08593,  	  -0.00290, 0.00878,   -0.27593, 1.16513, -1.04802,  -0.02929,  	  116.41230, 60.00000, 0.00000,     	 0.14310, 0.34302,   23.44510,  0.20000, 0.20000,  0.10000, 0.10000,      3,3,3    
0.9,   0.00023, 0.01144,   0.02396, -2.19146, 1.03987,  0.10936,  	  -0.00280, 0.01164,   -0.20621, 1.14090, -1.06115,  -0.04101,  	  116.43482, 60.00000, 0.00000,     	 0.14719, 0.35852,   23.32343,  0.20000, 0.20000,  0.10000, 0.10000,      3,3,3    
0.9,   0.00035, 0.01167,   -0.03218, -2.12829, 1.05509,  0.11718,  	  -0.00268, 0.01469,   -0.10267, 1.10935, -1.06930,  -0.05859,  	  116.45533, 60.00000, 0.00000,     	 0.15080, 0.36410,   23.26238,  0.20000, 0.20000,  0.10000, 0.10000,      3,3,3    
0.9,   0.00048, 0.01296,   -0.09726, -2.05917, 1.08699,  0.12695,  	  -0.00251, 0.01751,   -0.06102, 1.07414, -1.08433,  -0.06446,  	  116.47593, 60.00000, 0.00000,     	 0.15542, 0.38033,   23.13256,  0.20000, 0.20000,  0.10000, 0.10000,      3,3,3    
0.9,   0.00060, 0.01224,   -0.15758, -1.99007, 1.07145,  0.13476,  	  -0.00234, 0.01647,   -0.03058, 1.03924, -1.07318,  -0.06836,  	  116.48683, 60.00000, 0.00000,     	 0.15493, 0.33151,   23.41448,  0.20000, 0.20000,  0.10000, 0.10000,      3,3,3    
0.9,   0.00073, 0.01272,   -0.14937, -1.91871, 1.08470,  0.13086,  	  -0.00217, 0.02035,   0.08357, 0.99472, -1.08124,  -0.08787,  	  116.49797, 60.00000, 0.00000,     	 0.15788, 0.32970,   23.40097,  0.20000, 0.20000,  0.10000, 0.10000,      3,3,3    
0.9,   0.00085, 0.01301,   -0.17905, -1.84510, 1.11365,  0.13476,  	  -0.00196, 0.02336,   0.12418, 0.94086, -1.07681,  -0.09180,  	  116.49970, 60.00000, 0.00000,     	 0.16188, 0.34037,   23.30785,  0.20000, 0.20000,  0.10000, 0.10000,      3,3,3    
0.9,   0.00098, 0.01351,   -0.22744, -1.76176, 1.12163,  0.14062,  	  -0.00173, 0.02243,   0.10788, 0.88942, -1.08826,  -0.08789,  	  116.49538, 60.00000, 0.00000,     	 0.16536, 0.34401,   23.25900,  0.20000, 0.20000,  0.10000, 0.10000,      3,3,3    
0.9,   0.00112, 0.01475,   -0.28892, -1.67842, 1.12394,  0.14844,  	  -0.00150, 0.02512,   0.18321, 0.83799, -1.09195,  -0.09961,  	  116.49098, 60.00000, 0.00000,     	 0.16836, 0.34139,   23.24983,  0.20000, 0.20000,  0.10000, 0.10000,      3,3,3    
1.0,   0.00128, 0.01602,   -0.36689, -1.59287, 1.14983,  0.16015,  	  -0.00124, 0.02786,   0.24903, 0.77716, -1.10351,  -0.10937,  	  116.47709, 60.00000, 0.00000,     	 0.17239, 0.35227,   23.15552,  0.20000, 0.20000,  0.10000, 0.10000,      3,3,3    
1.0,   0.00144, 0.01706,   -0.43721, -1.50729, 1.15534,  0.16991,  	  -0.00096, 0.02899,   0.26210, 0.71608, -1.10491,  -0.10938,  	  116.47277, 60.00000, 0.00000,     	 0.17514, 0.34326,   23.18479,  0.20000, 0.20000,  0.10000, 0.10000,      3,3,3    
1.0,   0.00162, 0.01729,   -0.45316, -1.40619, 1.18614,  0.16992,  	  -0.00065, 0.03049,   0.30468, 0.65381, -1.12233,  -0.11523,  	  116.45877, 60.00000, 0.00000,     	 0.17965, 0.35698,   23.07021,  0.20000, 0.20000,  0.10000, 0.10000,      3,3,3    
1.0,   0.00180, 0.01726,   -0.57234, -1.31476, 1.17491,  0.18749,  	  -0.00035, 0.02714,   0.30524, 0.58889, -1.12366,  -0.11328,  	  116.46027, 60.00000, 0.00000,     	 0.17980, 0.31361,   23.31648,  0.20000, 0.20000,  0.10000, 0.10000,      3,3,3    
1.0,   0.00198, 0.01989,   -0.60066, -1.20167, 1.16371,  0.18750,  	  -0.00007, 0.03204,   0.34217, 0.51879, -1.12250,  -0.11719,  	  116.46546, 60.00000, 0.00000,     	 0.18108, 0.28933,   23.44451,  0.20000, 0.20000,  0.10000, 0.10000,      3,3,3    
1.0,   0.00219, 0.02168,   -0.62584, -1.10054, 1.19505,  0.18945,  	  0.00026, 0.03595,   0.38362, 0.45595, -1.14097,  -0.12304,  	  116.47634, 60.00000, 0.00000,     	 0.18422, 0.28819,   23.42576,  0.20000, 0.20000,  0.10000, 0.10000,      3,3,3    
1.0,   0.00240, 0.01852,   -0.58878, -0.99125, 1.21610,  0.17969,  	  0.00063, 0.03688,   0.48938, 0.38001, -1.13653,  -0.13867,  	  116.47772, 60.00000, 0.00000,     	 0.18610, 0.27151,   23.50571,  0.20000, 0.20000,  0.10000, 0.10000,      3,3,3    
1.0,   0.00257, 0.01485,   -0.52175, -0.89748, 1.20247,  0.16407,  	  0.00098, 0.03525,   0.57399, 0.30561, -1.11283,  -0.15038,  	  116.47300, 60.00000, 0.00000,     	 0.18526, 0.22158,   23.79692,  0.20000, 0.20000,  0.10000, 0.10000,      3,3,3    
1.0,   0.00271, 0.01297,   -0.46850, -0.80533, 1.22629,  0.15235,  	  0.00135, 0.03920,   0.62958, 0.21629, -1.10616,  -0.15625,  	  116.43365, 60.00000, 0.00000,     	 0.18716, 0.21306,   23.83010,  0.20000, 0.20000,  0.10000, 0.10000,      3,3,3    
1.0,   0.00284, 0.01223,   -0.45551, -0.72512, 1.24258,  0.14843,  	  0.00174, 0.03953,   0.65775, 0.13428, -1.09846,  -0.15820,  	  116.39407, 60.00000, 0.00000,     	 0.19022, 0.22223,   23.75319,  0.20000, 0.20000,  0.10000, 0.10000,      3,3,3    
1.1,   0.00296, 0.01213,   -0.46381, -0.64287, 1.22611,  0.14648,  	  0.00212, 0.03725,   0.63384, 0.04303, -1.09136,  -0.15039,  	  116.32931, 60.00000, 0.00000,     	 0.19139, 0.20821,   23.82352,  0.20000, 0.20000,  0.10000, 0.10000,      3,3,3    
1.1,   0.00308, 0.01391,   -0.50128, -0.56508, 1.22299,  0.15038,  	  0.00248, 0.03541,   0.55882, -0.02907, -1.09730,  -0.13477,  	  116.26780, 60.00000, 0.00000,     	 0.19301, 0.20076,   23.85261,  0.20000, 0.20000,  0.10000, 0.10000,      3,3,3    
1.1,   0.00323, 0.01316,   -0.45352, -0.48157, 1.23071,  0.13868,  	  0.00283, 0.03445,   0.55942, -0.10492, -1.11082,  -0.13281,  	  116.20255, 60.00000, 0.00000,     	 0.19508, 0.20085,   23.83511,  0.20000, 0.20000,  0.10000, 0.10000,      3,3,3    
1.1,   0.00336, 0.01257,   -0.47718, -0.40408, 1.23134,  0.14062,  	  0.00318, 0.03547,   0.60742, -0.17716, -1.10499,  -0.13867,  	  116.13718, 60.00000, 0.00000,     	 0.19683, 0.19551,   23.85162,  0.20000, 0.20000,  0.10000, 0.10000,      3,3,3    
1.1,   0.00348, 0.01183,   -0.44598, -0.33048, 1.24359,  0.13281,  	  0.00355, 0.03875,   0.65694, -0.25530, -1.10023,  -0.14453,  	  116.06215, 60.00000, 0.00000,     	 0.20056, 0.21645,   23.70225,  0.20000, 0.20000,  0.10000, 0.10000,      3,3,3    
1.1,   0.00360, 0.01013,   -0.40387, -0.26291, 1.25266,  0.12305,  	  0.00393, 0.03734,   0.68289, -0.32971, -1.09869,  -0.14648,  	  115.98112, 60.00000, 0.00000,     	 0.20314, 0.21929,   23.66525,  0.20000, 0.20000,  0.10000, 0.10000,      3,3,3    
1.1,   0.00370, 0.01014,   -0.41542, -0.18741, 1.25599,  0.12304,  	  0.00431, 0.03621,   0.65239, -0.41745, -1.08660,  -0.13673,  	  115.89047, 60.00000, 0.00000,     	 0.20535, 0.21742,   23.65787,  0.20000, 0.20000,  0.10000, 0.10000,      3,3,3    
1.1,   0.00379, 0.00660,   -0.31975, -0.12971, 1.25369,  0.10353,  	  0.00468, 0.03530,   0.74111, -0.49427, -1.08543,  -0.15038,  	  115.80937, 60.00000, 0.00000,     	 0.20644, 0.20142,   23.74035,  0.20000, 0.20000,  0.10000, 0.10000,      3,3,3    
1.1,   0.00386, 0.00634,   -0.29547, -0.06632, 1.25864,  0.09766,  	  0.00505, 0.03750,   0.70472, -0.57478, -1.07531,  -0.14062,  	  115.71857, 60.00000, 0.00000,     	 0.21103, 0.23228,   23.52716,  0.20000, 0.20000,  0.10000, 0.10000,      3,3,3    
1.1,   0.00392, 0.00471,   -0.23944, -0.01849, 1.25938,  0.08595,  	  0.00542, 0.03479,   0.69149, -0.65396, -1.06600,  -0.13477,  	  115.63745, 60.00000, 0.00000,     	 0.21368, 0.23454,   23.49267,  0.20000, 0.20000,  0.10000, 0.10000,      3,3,3    
1.2,   0.00396, 0.00249,   -0.15999, 0.02317, 1.24851,  0.07032,  	  0.00576, 0.03253,   0.65306, -0.72939, -1.05377,  -0.12501,  	  115.54667, 60.00000, 0.00000,     	 0.21747, 0.25153,   23.36494,  0.20000, 0.20000,  0.10000, 0.10000,      3,3,3    
1.2,   0.00398, 0.00124,   -0.14556, 0.05679, 1.23611,  0.06289,  	  0.00609, 0.03264,   0.70620, -0.79169, -1.04934,  -0.13633,  	  115.47133, 60.00000, 0.00000,     	 0.22083, 0.26064,   23.28609,  0.20000, 0.20000,  0.10000, 0.10000,      3,3,3    
1.2,   0.00399, -0.00041,   -0.10505, 0.08874, 1.24773,  0.05860,  	  0.00642, 0.03374,   0.69654, -0.86949, -1.03496,  -0.12696,  	  115.39024, 60.00000, 0.00000,     	 0.22529, 0.28317,   23.12152,  0.20000, 0.20000,  0.10000, 0.10000,      3,3,3    
1.2,   0.00397, -0.00348,   -0.02146, 0.11254, 1.24183,  0.04297,  	  0.00675, 0.03169,   1.13164, -0.93405, 0.98355,  -0.13086,  	  115.31501, 60.00000, 0.00000,     	 0.22851, 0.28776,   23.07210,  0.20000, 0.20000,  0.10000, 0.10000,      3,3,3    
1.2,   0.00393, -0.00387,   -0.00353, 0.13251, 1.23364,  0.03906,  	  0.00706, 0.02890,   1.10540, -1.00455, 0.99382,  -0.12305,  	  115.23985, 60.00000, 0.00000,     	 0.23051, 0.27703,   23.11672,  0.20000, 0.20000,  0.10000, 0.10000,      3,3,3    
1.2,   0.00389, -0.00527,   0.07743, 0.14649, 1.21918,  0.02345,  	  0.00734, 0.02588,   1.07489, -1.07133, 0.99545,  -0.11524,  	  115.16472, 60.00000, 0.00000,     	 0.23137, 0.25418,   23.23977,  0.20000, 0.20000,  0.10000, 0.10000,      3,3,3    
1.2,   0.00383, -0.00664,   0.07524, 0.16055, 1.20782,  0.01289,  	  0.00760, 0.02606,   1.06625, -1.13820, 1.00580,  -0.10078,  	  115.09922, 60.00000, 0.00000,     	 0.23418, 0.25891,   23.18999,  0.20000, 0.20000,  0.10000, 0.10000,      3,3,3    
1.2,   0.00376, -0.00732,   0.14906, 0.16673, 1.19438,  0.00977,  	  0.00783, 0.02105,   0.94786, -1.19186, 1.01375,  -0.08790,  	  115.04926, 60.00000, 0.00000,     	 0.23584, 0.24813,   23.23708,  0.20000, 0.20000,  0.10000, 0.10000,      3,3,3    
1.2,   0.00369, -0.00617,   0.16615, 0.17077, 1.17151,  0.00586,  	  0.00803, 0.01599,   0.84480, -1.23600, 1.01034,  -0.06837,  	  115.00511, 60.00000, 0.00000,     	 0.23638, 0.22406,   23.36916,  0.20000, 0.20000,  0.10000, 0.10000,      3,3,3    
1.2,   0.00362, -0.00775,   0.24966, 0.16712, 1.15279,  -0.00975,  	  0.00818, 0.01316,   0.82394, -1.26685, 1.00969,  -0.06445,  	  114.98031, 60.00000, 0.00000,     	 0.23889, 0.22720,   23.33096,  0.20000, 0.20000,  0.10000, 0.10000,      3,3,3    
1.3,   0.00354, -0.00993,   0.28490, 0.15612, 1.14762,  -0.02090,  	  0.00831, 0.01406,   0.85722, -1.30957, 1.02009,  -0.07012,  	  114.96539, 60.00000, 0.00000,     	 0.24184, 0.23712,   23.25085,  0.20000, 0.20000,  0.10000, 0.10000,      3,3,3    
1.3,   0.00343, -0.01324,   0.34458, 0.14912, 1.15137,  -0.02539,  	  0.00846, 0.01427,   0.88015, -1.34658, 1.04214,  -0.07031,  	  114.96588, 60.00000, 0.00000,     	 0.24518, 0.25088,   23.14569,  0.20000, 0.20000,  0.10000, 0.10000,      3,3,3    
1.3,   0.00329, -0.01567,   0.41235, 0.13247, 1.14320,  -0.03710,  	  0.00860, 0.01194,   0.83569, -1.38573, 1.05071,  -0.06055,  	  114.96659, 60.00000, 0.00000,     	 0.24893, 0.26895,   23.01238,  0.20000, 0.20000,  0.10000, 0.10000,      3,3,3    
1.3,   0.00313, -0.01707,   0.50344, 0.10410, 1.12577,  -0.05272,  	  0.00870, 0.00808,   0.82052, -1.41750, 1.06894,  -0.05664,  	  114.97337, 60.00000, 0.00000,     	 0.25145, 0.26723,   23.00190,  0.20000, 0.20000,  0.10000, 0.10000,      3,3,3    
1.3,   0.00294, -0.02034,   0.54237, 0.06996, 1.10415,  -0.05859,  	  0.00877, 0.00522,   0.76265, -1.44544, 1.08151,  -0.04492,  	  114.98397, 60.00000, 0.00000,     	 0.25666, 0.30239,   22.75927,  0.20000, 0.20000,  0.10000, 0.10000,      3,3,3    
1.3,   0.00274, -0.01997,   0.57001, 0.03965, 1.09753,  -0.06250,  	  0.00882, 0.00185,   0.68456, -1.46764, 1.09661,  -0.02931,  	  115.00033, 60.00000, 0.00000,     	 0.26138, 0.32501,   22.59195,  0.20000, 0.20000,  0.10000, 0.10000,      3,3,3    
1.3,   0.00254, -0.01804,   0.22445, -0.00224, -0.93509,  -0.06836,  	  0.00882, -0.00258,   0.60539, -1.48240, 1.08777,  -0.01563,  	  115.02651, 60.00000, 0.00000,     	 0.26251, 0.30060,   22.72043,  0.20000, 0.20000,  0.10000, 0.10000,      3,3,3    
1.3,   0.00236, -0.01725,   0.25073, -0.04225, -0.96767,  -0.06914,  	  0.00877, -0.00962,   0.44963, -1.48185, 1.08346,  0.01348,  	  115.06803, 60.00000, 0.00000,     	 0.26403, 0.28308,   22.80740,  0.20000, 0.20000,  0.10000, 0.10000,      3,3,3    
1.3,   0.00220, -0.01496,   0.24085, -0.07845, -0.99175,  -0.07598,  	  0.00867, -0.01275,   0.35735, -1.47557, 1.07344,  0.03262,  	  115.11531, 60.00000, 0.00000,     	 0.26516, 0.26431,   22.90491,  0.20000, 0.20000,  0.10000, 0.10000,      3,3,3    
1.3,   0.00204, -0.01439,   0.26729, -0.12617, -1.02434,  -0.07988,  	  0.00852, -0.01722,   0.26415, -1.46171, 1.07505,  0.04297,  	  115.17020, 60.00000, 0.00000,     	 0.26822, 0.27092,   22.84235,  0.20000, 0.20000,  0.10000, 0.10000,      3,3,3    
1.4,   0.00188, -0.01739,   0.32450, -0.16624, -1.04969,  -0.08788,  	  0.00834, -0.02037,   0.25693, -1.43652, 1.07882,  0.04297,  	  115.24250, 60.00000, 0.00000,     	 0.27390, 0.30759,   22.58756,  0.20000, 0.20000,  0.10000, 0.10000,      3,3,3    
1.4,   0.00170, -0.02073,   0.43183, -0.22201, -1.06615,  -0.10547,  	  0.00812, -0.02639,   0.18991, -1.40950, 1.09472,  0.05996,  	  115.30324, 60.00000, 0.00000,     	 0.27984, 0.34374,   22.33384,  0.20000, 0.20000,  0.10000, 0.10000,      3,3,3    
1.4,   0.00151, -0.01806,   0.46383, -0.27967, -1.08620,  -0.10937,  	  0.00786, -0.02705,   0.10482, -1.37331, 1.09560,  0.06835,  	  115.38531, 60.00000, 0.00000,     	 0.27985, 0.30212,   22.57068,  0.20000, 0.20000,  0.10000, 0.10000,      3,3,3    
1.4,   0.00131, -0.02072,   0.52693, -0.33759, -1.11193,  -0.11387,  	  0.00757, -0.03411,   0.02332, -1.33708, 1.10934,  0.08730,  	  115.45771, 60.00000, 0.00000,     	 0.28331, 0.30910,   22.50309,  0.20000, 0.20000,  0.10000, 0.10000,      3,3,3    
1.4,   0.00111, -0.01924,   0.50921, -0.40306, -1.15504,  -0.11523,  	  0.00721, -0.04087,   -0.09877, -1.28789, 1.10566,  0.10508,  	  115.55896, 60.00000, 0.00000,     	 0.28858, 0.33843,   22.29334,  0.20000, 0.20000,  0.10000, 0.10000,      3,3,3    
1.4,   0.00092, -0.01799,   0.53630, -0.46506, -1.18987,  -0.11738,  	  0.00679, -0.04507,   -0.19058, -1.23292, 1.09904,  0.11875,  	  115.65625, 60.00000, 0.00000,     	 0.29331, 0.35591,   22.15573,  0.20000, 0.20000,  0.10000, 0.10000,      3,3,3    
1.4,   0.00075, -0.01567,   0.55713, -0.53468, -1.21096,  -0.12285,  	  0.00633, -0.04737,   -0.27365, -1.16523, 1.08929,  0.13047,  	  115.78829, 60.00000, 0.00000,     	 0.29595, 0.34337,   22.20600,  0.20000, 0.20000,  0.10000, 0.10000,      3,3,3    
1.4,   0.00060, -0.01563,   0.57691, -0.59463, -1.23392,  -0.12305,  	  0.00585, -0.05296,   -0.34446, -1.09561, 1.08813,  0.13671,  	  115.92968, 60.00000, 0.00000,     	 0.29961, 0.34690,   22.15645,  0.20000, 0.20000,  0.10000, 0.10000,      3,3,3    
1.4,   0.00044, -0.01550,   0.57406, -0.66030, -1.26044,  -0.12110,  	  0.00532, -0.05373,   -0.35847, -1.02287, 1.09167,  0.13671,  	  116.09625, 60.00000, 0.00000,     	 0.30424, 0.36071,   22.04029,  0.20000, 0.20000,  0.10000, 0.10000,      3,3,3    
1.4,   0.00028, -0.01513,   0.58398, -0.72615, -1.27401,  -0.11934,  	  0.00478, -0.05631,   -0.39741, -0.95065, 1.08590,  0.13887,  	  116.27461, 60.00000, 0.00000,     	 0.30907, 0.37651,   21.91132,  0.20000, 0.20000,  0.10000, 0.10000,      3,3,3    
1.5,   0.00013, -0.01569,   0.59476, -0.79170, -1.28219,  -0.12109,  	  0.00423, -0.05490,   -0.36952, -0.87924, 1.08450,  0.13282,  	  116.48776, 60.00000, 0.00000,     	 0.31331, 0.38289,   21.84067,  0.20000, 0.20000,  0.10000, 0.10000,      3,3,3    
1.5,   -0.00002, -0.01494,   0.58313, -0.85140, -1.28545,  -0.11367,  	  0.00368, -0.05337,   -0.35131, -0.81190, 1.08257,  0.12696,  	  116.71045, 60.00000, 0.00000,     	 0.31771, 0.39000,   21.76443,  0.20000, 0.20000,  0.10000, 0.10000,      3,3,3    
1.5,   -0.00016, -0.01441,   0.58752, -0.91102, -1.26972,  -0.11523,  	  0.00316, -0.05058,   -0.35050, -0.74544, 1.08376,  0.12500,  	  116.96426, 60.00000, 0.00000,     	 0.31998, 0.37022,   21.85868,  0.20000, 0.20000,  0.10000, 0.10000,      3,3,3    
1.5,   -0.00032, -0.01846,   0.65559, -0.97839, -1.27379,  -0.11973,  	  0.00266, -0.05023,   -0.29188, -0.69103, 1.10033,  0.12031,  	  117.20872, 60.00000, 0.00000,     	 0.32401, 0.37515,   21.79808,  0.20000, 0.20000,  0.10000, 0.10000,      3,3,3    
1.5,   -0.00050, -0.01725,   0.65743, -1.04431, -1.27522,  -0.12305,  	  0.00216, -0.04928,   -0.31567, -0.62712, 1.10129,  0.10645,  	  117.27416, 60.00000, 0.00000,     	 0.32596, 0.35417,   21.90190,  0.20000, 0.20000,  0.10000, 0.10000,      3,3,3    
1.5,   -0.00068, -0.02061,   0.68411, -1.10606, -1.26141,  -0.13379,  	  0.00168, -0.04910,   -0.25422, -0.58163, 1.11534,  0.10000,  	  117.29907, 60.00000, 0.00000,     	 0.32972, 0.35989,   21.83882,  0.20000, 0.20000,  0.10000, 0.10000,      3,3,3    
1.5,   -0.00090, -0.02513,   0.75292, -1.17773, -1.27108,  -0.13828,  	  0.00120, -0.04917,   -0.21359, -0.53795, 1.14134,  0.08516,  	  117.29888, 60.00000, 0.00000,     	 0.33373, 0.37036,   21.74698,  0.20000, 0.20000,  0.10000, 0.10000,      3,3,3    
1.5,   -0.00117, -0.02907,   0.81306, -1.24954, -1.25987,  -0.13906,  	  0.00073, -0.04429,   -0.11754, -0.49407, 1.16511,  0.06758,  	  117.28899, 60.00000, 0.00000,     	 0.33645, 0.36275,   21.76850,  0.20000, 0.20000,  0.10000, 0.10000,      3,3,3    
1.5,   -0.00147, -0.03432,   0.86564, -1.32662, -1.23365,  -0.14843,  	  0.00031, -0.04164,   -0.01824, -0.46679, 1.18562,  0.06055,  	  117.47751, 60.00000, 0.00000,     	 0.34023, 0.37096,   21.69143,  0.20000, 0.20000,  0.10000, 0.10000,      3,3,3    
1.5,   -0.00183, -0.03997,   0.95096, -1.41355, -1.23231,  -0.16191,  	  -0.00009, -0.03983,   0.06216, -0.44192, 1.22370,  0.03633,  	  117.65652, 60.00000, 0.00000,     	 0.34425, 0.38117,   21.60117,  0.20000, 0.20000,  0.10000, 0.10000,      3,3,3    
1.6,   -0.00224, -0.04581,   0.98554, -1.50791, -1.22034,  -0.16914,  	  -0.00047, -0.03814,   0.14744, -0.42909, 1.26381,  0.02969,  	  117.82628, 60.00000, 0.00000,     	 0.35005, 0.41317,   21.37218,  0.20000, 0.20000,  0.10000, 0.10000,      3,3,3    
1.6,   -0.00272, -0.05063,   1.05706, -1.59656, -1.22881,  -0.17187,  	  -0.00085, -0.03761,   0.20796, -0.41931, 1.30182,  0.02344,  	  117.96485, 60.00000, 0.00000,     	 0.35676, 0.45263,   21.09365,  0.20000, 0.20000,  0.10000, 0.10000,      3,3,3    
1.6,   -0.00326, -0.05771,   1.09858, -1.69485, -1.23445,  -0.17754,  	  -0.00124, -0.04146,   0.20748, -0.41234, 1.34572,  0.02539,  	  118.10958, 60.00000, 0.00000,     	 0.36813, 0.54606,   20.46975,  0.20000, 0.20000,  0.10000, 0.10000,      3,3,3    
1.6,   -0.00382, -0.05506,   1.14755, -1.79313, -1.24961,  -0.18340,  	  -0.00165, -0.03998,   0.20673, -0.40542, 1.35538,  0.02891,  	  118.24832, 60.00000, 0.00000,     	 0.37476, 0.56530,   20.30685,  0.20000, 0.20000,  0.10000, 0.10000,      3,3,3    
1.6,   -0.00439, -0.06023,   1.19029, -1.90685, -1.26471,  -0.18906,  	  -0.00206, -0.04437,   0.20636, -0.40017, 1.36516,  0.02539,  	  118.14242, 60.00000, 0.00000,     	 0.38437, 0.62137,   19.90989,  0.20000, 0.20000,  0.10000, 0.10000,      3,3,3    
1.6,   -0.00499, -0.06336,   1.27240, -2.00165, -1.27574,  -0.19902,  	  -0.00251, -0.04504,   0.22096, -0.38918, 1.39031,  0.02871,  	  118.01097, 60.00000, 0.00000,     	 0.39224, 0.64649,   19.70374,  0.20000, 0.20000,  0.10000, 0.10000,      3,3,3    
1.6,   -0.00564, -0.06711,   1.32552, -2.11593, -1.29819,  -0.21191,  	  -0.00297, -0.04517,   0.25589, -0.38220, 1.41832,  0.02285,  	  117.86058, 60.00000, 0.00000,     	 0.39988, 0.66498,   19.53696,  0.20000, 0.20000,  0.10000, 0.10000,      3,3,3    
1.6,   -0.00633, -0.07266,   1.43756, -2.23628, -1.30217,  -0.22051,  	  -0.00345, -0.05366,   0.15648, -0.37079, 1.45558,  0.03887,  	  117.69449, 60.00000, 0.00000,     	 0.40804, 0.68663,   19.34834,  0.20000, 0.20000,  0.10000, 0.10000,      3,3,3    
1.6,   -0.00705, -0.07497,   1.50915, -2.36532, -1.35003,  -0.22851,  	  -0.00400, -0.05918,   0.11751, -0.34290, 1.46920,  0.04473,  	  117.73552, 60.00000, 0.00000,     	 0.41514, 0.69195,   19.26106,  0.20000, 0.20000,  0.10000, 0.10000,      3,3,3    
1.6,   -0.00781, -0.07827,   1.56159, -2.49231, -1.38541,  -0.24316,  	  -0.00461, -0.06678,   0.05335, -0.32411, 1.49464,  0.05644,  	  117.75758, 60.00000, 0.00000,     	 0.42349, 0.71197,   19.07980,  0.20000, 0.20000,  0.10000, 0.10000,      3,3,3    
1.7,   -0.00860, -0.08129,   1.63473, -2.63006, -1.44526,  -0.24941,  	  -0.00530, -0.07349,   -0.00357, -0.28172, 1.53513,  0.06973,  	  117.75730, 60.00000, 0.00000,     	 0.43224, 0.73288,   18.89041,  0.20000, 0.20000,  0.10000, 0.10000,      3,3,3    
1.7,   -0.00941, -0.08080,   1.68100, -2.77780, -1.47577,  -0.24805,  	  -0.00605, -0.08164,   -0.11110, -0.24129, 1.53107,  0.08202,  	  117.74381, 60.00000, 0.00000,     	 0.43909, 0.72769,   18.86494,  0.20000, 0.20000,  0.10000, 0.10000,      3,3,3    
1.7,   -0.01021, -0.08038,   1.68484, -2.91223, -1.53020,  -0.24961,  	  -0.00688, -0.08436,   -0.13412, -0.19218, 1.53858,  0.08926,  	  117.72380, 60.00000, 0.00000,     	 0.44711, 0.73596,   18.75296,  0.20000, 0.20000,  0.10000, 0.10000,      3,3,3    
1.7,   -0.01101, -0.07314,   1.67858, -3.05878, -1.55905,  -0.24024,  	  -0.00773, -0.08417,   -0.21957, -0.13541, 1.54887,  0.09765,  	  117.69386, 60.00000, 0.00000,     	 0.45167, 0.69997,   18.92148,  0.20000, 0.20000,  0.10000, 0.10000,      3,3,3    
1.7,   -0.01173, -0.07111,   1.64469, -3.18910, -1.57256,  -0.23047,  	  -0.00860, -0.08957,   -0.28466, -0.07865, 1.51146,  0.10546,  	  117.39355, 60.00000, 0.00000,     	 0.45751, 0.68415,   18.96453,  0.20000, 0.20000,  0.10000, 0.10000,      3,3,3    
1.7,   -0.01241, -0.06247,   1.55619, -3.31536, -1.57630,  -0.20566,  	  -0.00949, -0.08469,   -0.30518, -0.01494, 1.47736,  0.11250,  	  117.08679, 60.00000, 0.00000,     	 0.46153, 0.64636,   19.14680,  0.20000, 0.20000,  0.10000, 0.10000,      3,3,3    
1.7,   -0.01301, -0.05573,   1.50260, -3.43179, -1.57756,  -0.19727,  	  -0.01034, -0.08480,   -0.38008, 0.05148, 1.44568,  0.11523,  	  116.78569, 60.00000, 0.00000,     	 0.46461, 0.60124,   19.37892,  0.20000, 0.20000,  0.10000, 0.10000,      3,3,3    
1.7,   -0.01358, -0.05577,   1.50974, -3.54419, -1.59301,  -0.19180,  	  -0.01120, -0.08323,   -0.36389, 0.12450, 1.44296,  0.11465,  	  116.48411, 60.00000, 0.00000,     	 0.46830, 0.56849,   19.53588,  0.20000, 0.20000,  0.10000, 0.10000,      3,3,3    
1.7,   -0.01413, -0.05486,   1.46558, -3.65383, -1.59382,  -0.18008,  	  -0.01206, -0.08985,   -0.42147, 0.18804, 1.43233,  0.11719,  	  116.19242, 60.00000, 0.00000,     	 0.47497, 0.57803,   19.42754,  0.20000, 0.20000,  0.10000, 0.10000,      3,3,3    
1.7,   -0.01465, -0.04954,   1.40660, -3.75972, -1.60444,  -0.16289,  	  -0.01295, -0.08892,   -0.46024, 0.25753, 1.41669,  0.12461,  	  115.91219, 60.00000, 0.00000,     	 0.48069, 0.57480,   19.39937,  0.20000, 0.20000,  0.10000, 0.10000,      3,3,3    
1.8,   -0.01512, -0.04361,   1.33425, -3.84945, -1.60640,  -0.14375,  	  -0.01382, -0.08424,   -0.45192, 0.32587, 1.37771,  0.12227,  	  115.63554, 60.00000, 0.00000,     	 0.48551, 0.56079,   19.43969,  0.20000, 0.20000,  0.10000, 0.10000,      3,3,3    
1.8,   -0.01552, -0.03548,   1.25207, -3.93514, -1.59916,  -0.13672,  	  -0.01466, -0.08372,   -0.52510, 0.39986, 1.34762,  0.12500,  	  115.37405, 60.00000, 0.00000,     	 0.49097, 0.55591,   19.42291,  0.20000, 0.20000,  0.10000, 0.10000,      3,3,3    
1.8,   -0.01585, -0.02764,   1.14682, -4.00666, -1.58551,  -0.10293,  	  -0.01548, -0.08041,   -0.53394, 0.46942, 1.31336,  0.11777,  	  115.38654, 60.00000, 0.00000,     	 0.49708, 0.56113,   19.34307,  0.20000, 0.20000,  0.10000, 0.10000,      3,3,3    
1.8,   -0.01609, -0.01722,   1.00671, -4.06281, -1.56850,  -0.08790,  	  -0.01626, -0.07573,   -0.53638, 0.53712, 1.26184,  0.11914,  	  115.40490, 60.00000, 0.00000,     	 0.50382, 0.57313,   19.21922,  0.20000, 0.20000,  0.10000, 0.10000,      3,3,3    
1.8,   -0.01623, -0.00864,   0.88662, -4.10707, -1.53832,  -0.06446,  	  -0.01697, -0.06502,   -0.47380, 0.59684, 1.20403,  0.10352,  	  115.43326, 60.00000, 0.00000,     	 0.51039, 0.58107,   19.11981,  0.20000, 0.20000,  0.10000, 0.10000,      3,3,3    
1.8,   -0.01627, 0.00313,   0.73500, -4.13552, -1.50003,  -0.02111,  	  -0.01760, -0.05712,   -0.47187, 0.65482, 1.15591,  0.09258,  	  115.46536, 60.00000, 0.00000,     	 0.51677, 0.58526,   19.04338,  0.20000, 0.20000,  0.10000, 0.10000,      3,3,3    
1.8,   -0.01619, 0.01733,   0.55646, -4.14293, -1.44146,  0.00332,  	  -0.01814, -0.04689,   -0.85081, 0.70690, -0.92545,  0.09180,  	  115.50959, 60.00000, 0.00000,     	 0.52525, 0.61579,   18.80132,  0.20000, 0.20000,  0.10000, 0.10000,      3,3,3    
1.8,   -0.01599, 0.02589,   0.46084, -4.13836, -1.40637,  0.01561,  	  -0.01859, -0.04023,   -0.84363, 0.75178, -0.99738,  0.08594,  	  115.54826, 60.00000, 0.00000,     	 0.53272, 0.62940,   18.66275,  0.20000, 0.20000,  0.10000, 0.10000,      3,3,3    
1.8,   -0.01569, 0.03586,   0.31303, -4.11791, -1.33847,  0.04648,  	  -0.01893, -0.02726,   -0.78366, 0.79447, -1.05243,  0.07402,  	  115.60043, 60.00000, 0.00000,     	 0.53917, 0.62803,   18.61734,  0.20000, 0.20000,  0.10000, 0.10000,      3,3,3    
1.8,   -0.01530, 0.04400,   0.20359, -4.08614, -1.30528,  0.06248,  	  -0.01919, -0.01916,   -0.74844, 0.82961, -1.10466,  0.06251,  	  115.65521, 60.00000, 0.00000,     	 0.54615, 0.63544,   18.51777,  0.20000, 0.20000,  0.10000, 0.10000,      3,3,3    
1.9,   -0.01481, 0.05651,   0.05189, -4.04821, -1.23888,  0.08983,  	  -0.01935, -0.01069,   -0.75222, 0.86085, -1.16827,  0.06055,  	  115.71390, 60.00000, 0.00000,     	 0.55211, 0.62608,   18.52153,  0.20000, 0.20000,  0.10000, 0.10000,      3,3,3    
1.9,   -0.01423, 0.06275,   -0.01025, -3.98895, -1.19010,  0.10840,  	  -0.01943, -0.00628,   -0.76715, 0.88615, -1.22789,  0.05879,  	  115.78854, 60.00000, 0.00000,     	 0.55787, 0.61587,   18.53311,  0.20000, 0.20000,  0.10000, 0.10000,      3,3,3    
1.9,   -0.01356, 0.07224,   -0.15185, -3.92601, -1.18178,  0.13183,  	  -0.01948, -0.00040,   -0.76337, 0.91747, -1.27623,  0.06016,  	  115.86293, 60.00000, 0.00000,     	 0.56265, 0.59418,   18.61792,  0.20000, 0.20000,  0.10000, 0.10000,      3,3,3    
1.9,   -0.01280, 0.08431,   0.09635, -3.84748, 0.85231,  0.14452,  	  -0.01947, 0.00314,   -0.80522, 0.94693, -1.34831,  0.06055,  	  115.94711, 60.00000, 0.00000,     	 0.56728, 0.57449,   18.69271,  0.20000, 0.20000,  0.10000, 0.10000,      3,3,3    
1.9,   -0.01190, 0.09887,   -0.00053, -3.75944, 0.86243,  0.16913,  	  -0.01945, 0.00252,   -0.90395, 0.97917, -1.42875,  0.06894,  	  116.02157, 60.00000, 0.00000,     	 0.57256, 0.56365,   18.71214,  0.20000, 0.20000,  0.10000, 0.10000,      3,3,3    
1.9,   -0.01089, 0.10524,   -0.06464, -3.66544, 0.87688,  0.18223,  	  -0.01941, 0.00738,   -0.88001, 1.00738, -1.48877,  0.06992,  	  116.10592, 60.00000, 0.00000,     	 0.57773, 0.55567,   18.71556,  0.20000, 0.20000,  0.10000, 0.10000,      3,3,3    
1.9,   -0.00980, 0.11561,   -0.16894, -3.56458, 0.90032,  0.19434,  	  -0.01932, 0.00777,   -0.95304, 1.04411, -1.55074,  0.06738,  	  115.91024, 60.00000, 0.00000,     	 0.58279, 0.54382,   18.74251,  0.20000, 0.20000,  0.10000, 0.10000,      3,3,3    
1.9,   -0.00863, 0.12341,   -0.28784, -3.44809, 0.91751,  0.20137,  	  -0.01922, 0.01309,   -0.94699, 1.07938, -1.59498,  0.05996,  	  115.70507, 60.00000, 0.00000,     	 0.58699, 0.52255,   18.82977,  0.20000, 0.20000,  0.10000, 0.10000,      3,3,3    
1.9,   -0.00739, 0.12662,   -0.30571, -3.33516, 0.95073,  0.21191,  	  -0.01906, 0.01631,   -0.93838, 1.10788, -1.64042,  0.05781,  	  115.50993, 60.00000, 0.00000,     	 0.59265, 0.52460,   18.77217,  0.20000, 0.20000,  0.10000, 0.10000,      3,3,3    
1.9,   -0.00610, 0.13044,   -0.38176, -3.21284, 0.97430,  0.21289,  	  -0.01886, 0.02587,   -0.85672, 1.13772, -1.68198,  0.05079,  	  115.32668, 60.00000, 0.00000,     	 0.59824, 0.52518,   18.72331,  0.20000, 0.20000,  0.10000, 0.10000,      3,3,3    
2.0,   -0.00481, 0.12630,   -0.35371, -3.09774, 1.01778,  0.20156,  	  -0.01858, 0.03130,   -0.79583, 1.15555, -1.69593,  0.03555,  	  115.13803, 60.00000, 0.00000,     	 0.60452, 0.53327,   18.62610,  0.20000, 0.20000,  0.10000, 0.10000,      3,3,3    
2.0,   -0.00358, 0.11891,   -0.36921, -2.98301, 1.03704,  0.19804,  	  -0.01826, 0.03340,   -0.75530, 1.16779, -1.65259,  0.03145,  	  115.08544, 60.00000, 0.00000,     	 0.60686, 0.48930,   18.85740,  0.20000, 0.20000,  0.10000, 0.10000,      3,3,3    
2.0,   -0.00241, 0.11242,   -0.30429, -2.86831, 1.04660,  0.18066,  	  -0.01793, 0.03237,   -0.73351, 1.18029, -1.64498,  0.02227,  	  115.02321, 60.00000, 0.00000,     	 0.61000, 0.46559,   18.96667,  0.20000, 0.20000,  0.10000, 0.10000,      3,3,3    
2.0,   -0.00133, 0.10223,   -0.27666, -2.76658, 1.04908,  0.18340,  	  -0.01760, 0.03554,   -0.64732, 1.18992, -1.58835,  0.02266,  	  114.81559, 60.00000, 0.00000,     	 0.61093, 0.41289,   19.25896,  0.20000, 0.20000,  0.10000, 0.10000,      3,3,3    
2.0,   -0.00029, 0.10082,   -0.25437, -2.65888, 1.06018,  0.17383,  	  -0.01725, 0.03415,   -0.65105, 1.19470, -1.60382,  0.01738,  	  114.62754, 60.00000, 0.00000,     	 0.61353, 0.38933,   19.37202,  0.20000, 0.20000,  0.10000, 0.10000,      3,3,3    
2.0,   0.00072, 0.09730,   -0.22857, -2.56293, 1.06086,  0.16602,  	  -0.01692, 0.03220,   -0.65887, 1.20704, -1.58449,  0.01758,  	  114.42950, 60.00000, 0.00000,     	 0.61553, 0.36066,   19.51900,  0.20000, 0.20000,  0.10000, 0.10000,      3,3,3    
2.0,   0.00169, 0.09601,   -0.25574, -2.46463, 1.06311,  0.16797,  	  -0.01659, 0.03283,   -0.64300, 1.21073, -1.56300,  0.01562,  	  114.19101, 60.00000, 0.00000,     	 0.61699, 0.32849,   19.69041,  0.20000, 0.20000,  0.10000, 0.10000,      3,3,3    
2.0,   0.00262, 0.08556,   -0.14629, -2.37876, 1.03975,  0.14277,  	  -0.01628, 0.03266,   -0.57900, 1.21733, -1.54525,  0.01094,  	  114.08442, 60.00000, 0.00000,     	 0.61948, 0.31504,   19.74644,  0.20000, 0.20000,  0.10000, 0.10000,      3,3,3    
2.0,   0.00347, 0.07980,   -0.09402, -2.29982, 1.04670,  0.12578,  	  -0.01597, 0.02922,   -0.59174, 1.21689, -1.51261,  0.01484,  	  113.82665, 60.00000, 0.00000,     	 0.62223, 0.30525,   19.77996,  0.20000, 0.20000,  0.10000, 0.10000,      3,3,3    
2.0,   0.00424, 0.07360,   -0.02445, -2.22844, 1.01538,  0.10488,  	  -0.01571, 0.02348,   -0.60880, 1.22996, -1.47294,  0.01348,  	  113.55672, 60.00000, 0.00000,     	 0.62601, 0.31010,   19.72173,  0.20000, 0.20000,  0.10000, 0.10000,      3,3,3    
2.1,   0.00494, 0.06423,   0.07101, -2.16748, 0.99249,  0.07656,  	  -0.01550, 0.01552,   -0.64319, 1.23724, -1.42663,  0.02129,  	  113.39957, 60.00000, 0.00000,     	 0.63076, 0.32480,   19.59967,  0.20000, 0.20000,  0.10000, 0.10000,      3,3,3    
2.1,   0.00551, 0.04445,   0.25897, -2.12127, 0.93054,  0.06056,  	  -0.01539, 0.00447,   -0.64350, 1.25115, -1.34855,  0.02148,  	  113.08109, 60.00000, 0.00000,     	 0.63188, 0.29107,   19.78290,  0.20000, 0.20000,  0.10000, 0.10000,      3,3,3    
2.1,   0.00590, 0.02996,   0.01742, -2.09634, -1.14618,  0.01388,  	  -0.01540, -0.00672,   -0.66216, 1.27153, -1.25120,  0.03613,  	  112.73323, 60.00000, 0.00000,     	 0.63483, 0.28624,   19.78634,  0.20000, 0.20000,  0.10000, 0.10000,      3,3,3    
2.1,   0.00614, 0.01364,   0.19273, -2.08928, -1.21181,  -0.00389,  	  -0.01552, -0.02522,   -0.76979, 1.30008, -1.16888,  0.04882,  	  112.49563, 60.00000, 0.00000,     	 0.63652, 0.26550,   19.89134,  0.20000, 0.20000,  0.10000, 0.10000,      3,3,3    
2.1,   0.00622, -0.00168,   0.33178, -2.09670, -1.31639,  -0.03652,  	  -0.01583, -0.03795,   -0.79679, 1.33489, -1.08456,  0.06172,  	  112.11607, 60.00000, 0.00000,     	 0.63928, 0.25854,   19.90900,  0.20000, 0.20000,  0.10000, 0.10000,      3,3,3    
2.1,   0.00618, -0.00924,   0.42425, -2.11799, -1.37579,  -0.04882,  	  -0.01625, -0.05216,   -0.50275, 1.38426, 0.98070,  0.07421,  	  111.83691, 60.00000, 0.00000,     	 0.64003, 0.22697,   20.08173,  0.20000, 0.20000,  0.10000, 0.10000,      3,3,3    
2.1,   0.00606, -0.01702,   0.51206, -2.14968, -1.48368,  -0.07344,  	  -0.01684, -0.06784,   -0.60499, 1.44580, 1.03497,  0.09531,  	  111.42143, 60.00000, 0.00000,     	 0.64264, 0.22163,   20.09156,  0.20000, 0.20000,  0.10000, 0.10000,      3,3,3    
2.1,   0.00586, -0.02387,   0.59232, -2.18765, -1.56248,  -0.08202,  	  -0.01756, -0.07803,   -0.66648, 1.50793, 1.07385,  0.10156,  	  111.12228, 60.00000, 0.00000,     	 0.64481, 0.20970,   20.14249,  0.20000, 0.20000,  0.10000, 0.10000,      3,3,3    
2.1,   0.00559, -0.02925,   0.65511, -2.23605, -1.64613,  -0.09727,  	  -0.01841, -0.09048,   -0.76300, 1.58221, 1.11933,  0.12598,  	  110.69826, 60.00000, 0.00000,     	 0.64578, 0.18688,   20.26522,  0.20000, 0.20000,  0.10000, 0.10000,      3,3,3    
2.1,   0.00530, -0.02809,   0.65472, -2.29227, -1.71105,  -0.09024,  	  -0.01936, -0.10296,   -0.87584, 1.66623, 1.13107,  0.14003,  	  110.40788, 60.00000, 0.00000,     	 0.64868, 0.19148,   20.21611,  0.20000, 0.20000,  0.10000, 0.10000,      3,3,3    
2.2,   0.00503, -0.02722,   0.67205, -2.34042, -1.76563,  -0.09941,  	  -0.02041, -0.10801,   -0.94748, 1.76172, 1.10130,  0.14961,  	  110.12861, 60.00000, 0.00000,     	 0.65041, 0.17984,   20.26885,  0.20000, 0.20000,  0.10000, 0.10000,      3,3,3    
2.2,   0.00475, -0.02578,   0.65372, -2.39521, -1.82182,  -0.09551,  	  -0.02153, -0.11081,   -0.99518, 1.84914, 1.12551,  0.15371,  	  109.75428, 60.00000, 0.00000,     	 0.65174, 0.16340,   20.35193,  0.20000, 0.20000,  0.10000, 0.10000,      3,3,3    
2.2,   0.00450, -0.02458,   0.66065, -2.44278, -1.82681,  -0.09727,  	  -0.02265, -0.11567,   -1.05027, 1.94365, 1.10881,  0.15430,  	  109.51958, 60.00000, 0.00000,     	 0.65274, 0.14613,   20.44257,  0.20000, 0.20000,  0.10000, 0.10000,      3,3,3    
2.2,   0.00424, -0.02590,   0.68827, -2.49881, -1.85273,  -0.09238,  	  -0.02381, -0.11720,   -1.09986, 2.03979, 1.11707,  0.16543,  	  109.19517, 60.00000, 0.00000,     	 0.65265, 0.11723,   20.60835,  0.20000, 0.20000,  0.10000, 0.10000,      3,3,3    
2.2,   0.00399, -0.02466,   0.67426, -2.55220, -1.91785,  -0.09394,  	  -0.02504, -0.12409,   -1.14618, 2.13660, 1.10416,  0.17109,  	  109.02605, 60.00000, 0.00000,     	 0.65687, 0.14630,   20.40889,  0.20000, 0.20000,  0.10000, 0.10000,      3,3,3    
2.2,   0.00375, -0.02241,   0.67372, -2.60402, -1.91928,  -0.09551,  	  -0.02629, -0.12455,   -1.20006, 2.23690, 1.10232,  0.17520,  	  108.76155, 60.00000, 0.00000,     	 0.65615, 0.11097,   20.61633,  0.20000, 0.20000,  0.10000, 0.10000,      3,3,3    
2.2,   0.00353, -0.01860,   0.63696, -2.65778, -1.94784,  -0.08418,  	  -0.02755, -0.12574,   -1.24160, 2.33218, 1.10252,  0.17031,  	  108.64840, 60.00000, 0.00000,     	 0.65597, 0.08705,   20.75418,  0.20000, 0.20000,  0.10000, 0.10000,      3,3,3    
2.2,   0.00335, -0.01555,   0.62238, -2.70387, -1.94298,  -0.07852,  	  -0.02880, -0.12519,   -1.27499, 2.42680, 1.07522,  0.17227,  	  108.43851, 60.00000, 0.00000,     	 0.65635, 0.07179,   20.83825,  0.20000, 0.20000,  0.10000, 0.10000,      3,3,3    
2.2,   0.00321, -0.01045,   0.56569, -2.74841, -1.94370,  -0.06680,  	  -0.03004, -0.12153,   -1.26669, 2.52177, 1.05510,  0.15938,  	  108.38555, 60.00000, 0.00000,     	 0.65653, 0.05463,   20.93424,  0.20000, 0.20000,  0.10000, 0.10000,      3,3,3    
2.2,   0.00311, -0.00600,   0.51323, -2.78703, -1.91002,  -0.05860,  	  -0.03121, -0.11166,   -1.21126, 2.61180, 1.03224,  0.15625,  	  108.35074, 60.00000, 0.00000,     	 0.65726, 0.04542,   20.98011,  0.20000, 0.20000,  0.10000, 0.10000,      3,3,3    
2.3,   0.00307, -0.00149,   0.47859, -2.81730, -1.88340,  -0.04023,  	  -0.03232, -0.10612,   -1.20028, 2.68845, 0.99725,  0.14160,  	  108.46375, 60.00000, 0.00000,     	 0.65780, 0.03527,   21.03338,  0.20000, 0.20000,  0.10000, 0.10000,      3,3,3    
2.3,   0.00308, 0.00514,   0.40152, -2.84758, -1.85253,  -0.03516,  	  -0.03334, -0.09382,   -1.51508, 2.76478, -1.04424,  0.13477,  	  108.58084, 60.00000, 0.00000,     	 0.65965, 0.04207,   20.98241,  0.20000, 0.20000,  0.10000, 0.10000,      3,3,3    
2.3,   0.00317, 0.01337,   0.32937, -2.86545, -1.78538,  -0.02305,  	  -0.03426, -0.08790,   -1.49895, 2.82258, -1.08449,  0.11973,  	  108.71425, 60.00000, 0.00000,     	 0.66209, 0.05932,   20.86378,  0.20000, 0.20000,  0.10000, 0.10000,      3,3,3    
2.3,   0.00329, 0.01684,   0.29629, -2.87965, -1.75118,  -0.01173,  	  -0.03510, -0.08027,   -1.50963, 2.88589, -1.09349,  0.12499,  	  108.85322, 60.00000, 0.00000,     	 0.66123, 0.03025,   21.03642,  0.20000, 0.20000,  0.10000, 0.10000,      3,3,3    
2.3,   0.00348, 0.02006,   0.25354, -2.88805, -1.73726,  -0.00039,  	  -0.03589, -0.07045,   -1.42583, 2.94458, -1.14393,  0.10195,  	  109.00061, 60.00000, 0.00000,     	 0.66101, 0.01347,   21.13293,  0.20000, 0.20000,  0.10000, 0.10000,      3,3,3    
2.3,   0.00370, 0.02353,   0.20992, -2.88982, -1.68163,  0.01640,  	  -0.03657, -0.06176,   -1.35802, 2.98914, -1.15724,  0.09005,  	  109.16004, 60.00000, 0.00000,     	 0.66521, 0.05285,   20.87391,  0.20000, 0.20000,  0.10000, 0.10000,      3,3,3    
2.3,   0.00397, 0.02739,   0.16254, -2.89005, -1.62634,  0.02441,  	  -0.03715, -0.04744,   -1.25302, 3.02392, -1.20162,  0.05977,  	  109.31988, 60.00000, 0.00000,     	 0.66990, 0.09578,   20.59048,  0.20000, 0.20000,  0.10000, 0.10000,      3,3,3    
2.3,   0.00426, 0.03274,   0.08428, -2.87885, -1.51774,  0.03847,  	  -0.03756, -0.03093,   -1.16539, 3.05033, -1.20407,  0.05293,  	  109.48432, 60.00000, 0.00000,     	 0.67423, 0.12787,   20.37195,  0.20000, 0.20000,  0.10000, 0.10000,      3,3,3    
2.3,   0.00461, 0.03632,   0.04531, -2.86019, -1.46144,  0.04805,  	  -0.03785, -0.02222,   -1.13196, 3.06337, -1.24698,  0.04688,  	  109.63964, 60.00000, 0.00000,     	 0.67589, 0.12233,   20.38974,  0.20000, 0.20000,  0.10000, 0.10000,      3,3,3    
2.3,   0.00501, 0.04557,   -0.07016, -2.83740, -1.42195,  0.06776,  	  -0.03805, -0.01487,   -1.11869, 3.08258, -1.27590,  0.04121,  	  109.78507, 60.00000, 0.00000,     	 0.67574, 0.09402,   20.55219,  0.20000, 0.20000,  0.10000, 0.10000,      3,3,3    
