time,x,vx,u0,roll,upos0,gx,y,vy,u1,pitch,upos1,gy,yaw,yawsp,u2,z,vz,tm,linacc,gyroacc,quatacc
6002524.00000, 0.00000, 0.00145,   0.19021, -1.00735, 0.00000,            0.00000, 0.00001,   0.03851, -0.05847, 0.00000,         56.11749, 60.00000, 0.01453,            0.05999, 0.00461, 0.06058,   24.29995, 1530,      3,3,3    
6012524.00000, 0.00002, 0.00130,   0.24210, -1.00734, 0.00000,            -0.00001, -0.00106,   0.01513, -0.05826, 0.00000,       56.10803, 60.00000, 0.01456,            -0.03000, -0.00088, -0.01676,   24.61370, 1534,      3,3,3    
6022524.00000, 0.00003, 0.00027,   0.24185, -1.00745, 0.00000,            -0.00002, -0.00057,   -0.03437, -0.05815, 0.00000,      56.10186, 60.00000, 0.01296,            -0.03999, -0.00775, -0.10085,   24.95936, 1539,      3,3,3    
6032524.00000, 0.00003, 0.00028,   0.23785, -1.01362, 0.00000,            -0.00002, -0.00046,   0.00177, -0.06166, 0.00000,       56.11143, 60.00000, 0.01309,            -0.04999, -0.01432, -0.17103,   25.25214, 1543,      3,3,3    
6042524.00000, 0.00003, -0.00036,   0.15583, -1.00735, 0.00000,           -0.00002, -0.00039,   0.04150, -0.05847, 0.00000,       56.11749, 60.00000, 0.01290,            -0.03999, -0.02049, -0.22615,   25.48714, 1546,      3,3,3    
6052524.00000, 0.00002, -0.00085,   0.24230, -1.01352, -0.00129,          -0.00003, -0.00028,   0.08120, -0.06177, 0.04881,       56.11760, 60.00000, 0.01339,            -0.03999, -0.02622, -0.26898,   25.67472, 1548,      3,3,3    
6062524.00000, 0.00001, -0.00150,   0.14802, -1.01023, -0.00129,          -0.00002, 0.00123,   0.03703, -0.06794, 0.04881,        56.11771, 60.00000, 0.01436,            -0.03999, -0.03069, -0.29051,   25.77688, 1550,      3,3,3    
6072524.00000, -0.00001, -0.00190,   0.19076, -1.00406, -0.00129,         -0.00002, 0.00019,   -0.00693, -0.06465, 0.04881,       56.11760, 60.00000, 0.01436,            -0.03999, -0.03544, -0.31316,   25.88483, 1551,      3,3,3    
6082524.00000, -0.00003, -0.00122,   0.26598, -1.00416, -0.00129,         -0.00002, -0.00033,   0.00156, -0.06454, 0.04881,       56.11143, 60.00000, 0.01455,            -0.04999, -0.03966, -0.32532,   25.95145, 1552,      3,3,3    
6092524.00000, -0.00004, -0.00095,   0.21108, -1.01362, -0.00129,         -0.00002, 0.00128,   -0.04113, -0.06166, 0.04881,       56.11143, 60.00000, 0.01292,            -0.04999, -0.04412, -0.33950,   26.02642, 1553,      3,3,3    
6102524.00000, -0.00005, -0.00061,   0.20335, -1.01341, -0.00017,         -0.00001, 0.00010,   0.03104, -0.06188, 0.04526,        56.12379, 60.00000, 0.01256,            -0.03999, -0.04724, -0.33402,   26.02208, 1553,      3,3,3    
6112524.00000, -0.00006, -0.00079,   0.19980, -1.01341, -0.00017,         -0.00001, 0.00024,   0.03925, -0.06209, 0.04526,        56.13326, 60.00000, 0.01236,            -0.03999, -0.04834, -0.30490,   25.92013, 1552,      3,3,3    
6122524.00000, -0.00007, -0.00141,   0.18125, -1.01341, -0.00017,         -0.00002, -0.00015,   0.05612, -0.06209, 0.04526,       56.13326, 60.00000, 0.01447,            -0.03999, -0.04976, -0.28337,   25.84778, 1551,      3,3,3    
6132524.00000, -0.00010, -0.00122,   0.19268, -1.01352, -0.00017,         -0.00001, -0.00048,   -0.05002, -0.06198, 0.04526,      56.12707, 60.00000, 0.01401,            -0.03999, -0.05078, -0.25941,   25.76451, 1550,      3,3,3    
6142524.00000, -0.00012, -0.00238,   0.19917, -1.01064, -0.00017,         -0.00000, 0.00131,   -0.02712, -0.05251, 0.04526,       56.12685, 60.00000, 0.01401,            -0.03000, -0.05066, -0.22425,   25.63401, 1548,      3,3,3    
6152524.00000, -0.00014, -0.00189,   0.22246, -1.01393, 0.00493,          0.00001, 0.00036,   -0.00086, -0.04634, 0.04413,        56.12675, 60.00000, 0.01401,            -0.04999, -0.05254, -0.21916,   25.62486, 1548,      3,3,3    
6162596.00000, -0.00015, -0.00000,   0.24899, -1.02010, 0.00493,          0.00001, -0.00010,   0.02486, -0.04963, 0.04413,        56.12686, 60.00000, 0.01238,            -0.04999, -0.05258, -0.19086,   25.52053, 1546,      3,3,3    
6172596.00000, -0.00015, -0.00000,   0.20542, -1.01670, 0.00493,          0.00001, -0.00032,   0.07321, -0.05592, 0.04413,        56.13313, 60.00000, 0.01333,            -0.04999, -0.05388, -0.18423,   25.50258, 1546,      3,3,3    
6182654.00000, -0.00015, -0.00044,   0.16524, -1.01341, 0.00493,          -0.00000, -0.00065,   0.06085, -0.06231, 0.04413,       56.14272, 60.00000, 0.01330,            -0.03999, -0.05415, -0.16410,   25.42954, 1545,      3,3,3    
6192656.00000, -0.00015, 0.00082,   0.18092, -1.01341, 0.00493,           -0.00001, -0.00135,   0.05352, -0.06209, 0.04413,       56.13326, 60.00000, 0.01496,            -0.03000, -0.05267, -0.12417,   25.27451, 1543,      3,3,3    
6202740.00000, -0.00013, 0.00143,   0.21015, -1.00735, -0.00365,          -0.00002, -0.00137,   0.00689, -0.05869, 0.05680,       56.12696, 60.00000, 0.01480,            -0.03000, -0.05107, -0.08782,   25.13214, 1541,      3,3,3    
6212740.00000, -0.00012, 0.00161,   0.22858, -1.01064, -0.00365,          -0.00003, -0.00094,   -0.01543, -0.05251, 0.05680,      56.12685, 60.00000, 0.01336,            -0.03999, -0.05016, -0.06579,   25.04614, 1540,      3,3,3    
6222740.00000, -0.00009, 0.00299,   0.18802, -1.01053, -0.00365,          -0.00005, -0.00191,   -0.01359, -0.05262, 0.05680,      56.13303, 60.00000, 0.01333,            -0.03000, -0.04767, -0.02550,   24.88451, 1538,      3,3,3    
6232740.00000, -0.00006, 0.00232,   0.20825, -1.01053, -0.00365,          -0.00006, -0.00092,   0.04819, -0.05284, 0.05680,       56.14250, 60.00000, 0.01298,            -0.03999, -0.04598, -0.00210,   24.78946, 1537,      3,3,3    
6242740.00000, -0.00004, 0.00145,   0.19059, -1.01053, -0.00365,          -0.00007, -0.00049,   0.06717, -0.05284, 0.05680,       56.14250, 60.00000, 0.01217,            -0.03999, -0.04508, 0.01094,   24.73671, 1536,      3,3,3    
6252740.00000, -0.00003, -0.00052,   0.15302, -1.00724, 0.00505,          -0.00006, 0.00155,   0.07294, -0.05901, 0.05582,        56.14261, 60.00000, 0.01444,            -0.03999, -0.04345, 0.02978,   24.65875, 1535,      3,3,3    
6262740.00000, -0.00004, -0.00077,   0.17268, -1.00096, 0.00505,          -0.00004, 0.00102,   -0.00640, -0.05561, 0.05582,       56.13922, 60.00000, 0.01460,            -0.03999, -0.04266, 0.03589,   24.63219, 1534,      3,3,3    
6272740.00000, -0.00004, -0.00022,   0.20577, -1.00425, 0.00505,          -0.00003, 0.00016,   -0.00887, -0.04944, 0.05582,       56.13910, 60.00000, 0.01366,            -0.03999, -0.03891, 0.07872,   24.45484, 1532,      3,3,3    
6282740.00000, -0.00005, -0.00048,   0.23478, -1.00436, 0.00505,          -0.00002, 0.00024,   0.00515, -0.04954, 0.05582,        56.14240, 60.00000, 0.01314,            -0.03999, -0.03611, 0.10364,   24.34856, 1531,      3,3,3    
6292740.00000, -0.00006, -0.00110,   0.28006, -1.01042, 0.00505,          -0.00002, 0.00086,   0.01123, -0.05295, 0.05582,        56.14867, 60.00000, 0.01263,            0.00000, -0.03196, 0.14202,   24.18574, 1528,      3,3,3    
6302740.00000, -0.00004, 0.00091,   0.23655, -1.01372, 0.00900,           -0.00000, 0.00115,   -0.01107, -0.04699, 0.06311,       56.15803, 60.00000, 0.01357,            -0.03999, -0.02966, 0.15138,   24.13932, 1528,      3,3,3    
6312740.00000, -0.00004, 0.00049,   0.15919, -1.00755, 0.00900,           0.00000, -0.00010,   0.02123, -0.04348, 0.06311,        56.14846, 60.00000, 0.01442,            -0.03999, -0.02990, 0.12943,   24.22149, 1529,      3,3,3    
6322740.00000, -0.00003, 0.00042,   0.23009, -1.01372, 0.00900,           -0.00000, -0.00051,   0.03615, -0.04677, 0.06311,       56.14857, 60.00000, 0.01457,            -0.01000, -0.02723, 0.14749,   24.14129, 1528,      3,3,3    
6332740.00000, -0.00003, -0.00082,   0.17733, -1.00426, 0.00900,          -0.00001, 0.00008,   0.05040, -0.04965, 0.06311,        56.14857, 60.00000, 0.01344,            -0.03000, -0.02710, 0.13194,   24.19797, 1529,      3,3,3    
6342740.00000, -0.00004, -0.00109,   0.24759, -1.01372, 0.00900,          -0.00000, 0.00026,   -0.00573, -0.04677, 0.06311,       56.14857, 60.00000, 0.01296,            -0.03999, -0.02790, 0.10448,   24.30359, 1530,      3,3,3    
6352740.00000, -0.00004, 0.00022,   0.24002, -1.01372, 0.00208,           -0.00000, 0.00000,   0.03284, -0.04677, 0.05266,        56.14857, 60.00000, 0.01296,            -0.03999, -0.02881, 0.07900,   24.40240, 1531,      3,3,3    
6362740.00000, -0.00003, 0.00054,   0.22851, -1.01989, 0.00208,           -0.00000, -0.00063,   0.06605, -0.05007, 0.05266,       56.14867, 60.00000, 0.01406,            -0.03999, -0.02755, 0.08342,   24.37962, 1531,      3,3,3    
6372740.00000, -0.00003, 0.00067,   0.16063, -1.01659, 0.00208,           -0.00000, -0.00025,   0.01743, -0.05624, 0.05266,       56.14879, 60.00000, 0.01507,            -0.03999, -0.02645, 0.08570,   24.36545, 1531,      3,3,3    
6382740.00000, -0.00003, -0.00023,   0.22698, -1.01670, 0.00208,          -0.00001, -0.00006,   0.03260, -0.05613, 0.05266,       56.14261, 60.00000, 0.01379,            -0.01000, -0.02469, 0.09847,   24.30943, 1530,      3,3,3    
6392740.00000, -0.00003, -0.00066,   0.14191, -1.01042, 0.00208,          -0.00000, 0.00123,   0.00100, -0.05295, 0.05266,        56.14867, 60.00000, 0.01347,            -0.03999, -0.02615, 0.06837,   24.42791, 1532,      3,3,3    
6402784.00000, -0.00004, -0.00018,   0.19000, -1.00426, 0.01029,          0.00002, 0.00172,   -0.06101, -0.04965, 0.04803,        56.14857, 60.00000, 0.01344,            -0.03999, -0.02689, 0.05054,   24.49769, 1533,      3,3,3    
6412796.00000, -0.00004, 0.00081,   0.21555, -1.00755, 0.01029,           0.00002, -0.00002,   0.01813, -0.04348, 0.04803,        56.14846, 60.00000, 0.01341,            -0.03999, -0.02845, 0.02355,   24.60531, 1534,      3,3,3    
6422796.00000, -0.00003, 0.00044,   0.16583, -1.00755, 0.01029,           0.00002, -0.00093,   0.05057, -0.04348, 0.04803,        56.14846, 60.00000, 0.01393,            -0.01000, -0.02769, 0.03085,   24.57447, 1534,      3,3,3    
6432796.00000, -0.00003, -0.00005,   0.23306, -1.01042, 0.01029,          0.00001, -0.00089,   0.10543, -0.05295, 0.04803,        56.14867, 60.00000, 0.01344,            -0.03999, -0.02627, 0.04465,   24.51635, 1533,      3,3,3    
6442796.00000, -0.00003, 0.00074,   0.15259, -1.00713, 0.01029,           0.00000, -0.00000,   0.00912, -0.05912, 0.04803,        56.14879, 60.00000, 0.01248,            -0.03000, -0.02719, 0.02892,   24.57899, 1534,      3,3,3    
6452848.00000, -0.00003, -0.00118,   0.14026, -0.99798, 0.00452,          0.00001, 0.00150,   -0.05025, -0.04668, 0.04819,        56.16411, 60.00000, 0.01211,            -0.03000, -0.02812, 0.01374,   24.63979, 1535,      3,3,3    
6462848.00000, -0.00004, -0.00025,   0.18676, -0.99798, 0.00452,          0.00002, 0.00027,   -0.02634, -0.04668, 0.04819,        56.16411, 60.00000, 0.01371,            -0.03999, -0.02905, -0.00085,   24.69849, 1535,      3,3,3    
6472848.00000, -0.00004, 0.00051,   0.22872, -1.00138, 0.00452,           0.00002, -0.00097,   -0.02295, -0.04040, 0.04819,       56.15782, 60.00000, 0.01422,            -0.01000, -0.02842, 0.00816,   24.66205, 1535,      3,3,3    
6482848.00000, -0.00005, -0.00060,   0.20609, -0.99809, 0.00452,          0.00002, 0.00053,   0.03004, -0.04636, 0.04819,         56.14846, 60.00000, 0.01424,            -0.05999, -0.03088, -0.02289,   24.78930, 1537,      3,3,3    
6492848.00000, -0.00006, 0.00015,   0.20639, -0.99809, 0.00452,           0.00003, 0.00059,   0.05484, -0.04636, 0.04819,         56.14846, 60.00000, 0.01377,            -0.03000, -0.03094, -0.01935,   24.77654, 1536,      3,3,3    
6502848.00000, -0.00005, 0.00092,   0.14515, -0.99819, -0.00040,          0.00002, -0.00056,   0.02385, -0.04625, 0.05466,        56.14229, 60.00000, 0.01396,            -0.03999, -0.03173, -0.02484,   24.80073, 1537,      3,3,3    
6512854.00000, -0.00004, 0.00066,   0.14193, -0.98863, -0.00040,          0.00002, -0.00139,   0.06325, -0.04924, 0.05466,        56.14846, 60.00000, 0.01247,            -0.03999, -0.03472, -0.05950,   24.94405, 1539,      3,3,3    
6522854.00000, -0.00004, -0.00009,   0.13491, -0.98246, -0.00040,         0.00000, -0.00083,   -0.03867, -0.04616, 0.05466,       56.15783, 60.00000, 0.01260,            -0.01000, -0.03299, -0.02978,   24.82541, 1537,      3,3,3    
6532854.00000, -0.00004, 0.00011,   0.20076, -0.98246, -0.00040,          -0.00000, 0.00027,   0.03927, -0.04616, 0.05466,        56.15783, 60.00000, 0.01309,            -0.03999, -0.03356, -0.03221,   24.83737, 1537,      3,3,3    
6542854.00000, -0.00004, -0.00009,   0.23310, -0.98863, -0.00040,         0.00001, 0.00087,   0.04771, -0.04945, 0.05466,         56.15794, 60.00000, 0.01471,            -0.03999, -0.03406, -0.03395,   24.84646, 1537,      3,3,3    
6552870.00000, -0.00004, 0.00077,   0.27373, -0.99479, -0.00882,          0.00000, -0.00171,   0.06571, -0.05253, 0.05540,        56.14857, 60.00000, 0.01507,            -0.03000, -0.03601, -0.05309,   24.92713, 1538,      3,3,3    
6562880.00000, -0.00003, 0.00099,   0.19092, -0.99150, -0.00882,          -0.00002, -0.00120,   0.06065, -0.05892, 0.05540,       56.15815, 60.00000, 0.01328,            -0.03000, -0.03632, -0.05001,   24.91717, 1538,      3,3,3    
6572880.00000, -0.00001, 0.00138,   0.15929, -0.98523, -0.00882,          -0.00002, -0.00008,   0.00471, -0.05573, 0.05540,       56.16421, 60.00000, 0.01341,            -0.03999, -0.03506, -0.02941,   24.83462, 1537,      3,3,3    
6582880.00000, -0.00001, -0.00036,   0.13171, -0.98523, -0.00882,         -0.00003, 0.00025,   0.03944, -0.05595, 0.05540,        56.17369, 60.00000, 0.01222,            -0.03000, -0.03455, -0.01915,   24.79409, 1537,      3,3,3    
6592880.00000, -0.00000, 0.00143,   0.19759, -0.98512, -0.00882,          -0.00003, -0.00039,   -0.01677, -0.05605, 0.05540,      56.17986, 60.00000, 0.01236,            -0.03999, -0.03555, -0.02892,   24.83536, 1537,      3,3,3    
6602880.00000, 0.00000, 0.00063,   0.29608, -0.99129, -0.00249,           -0.00003, -0.00043,   0.03665, -0.05935, 0.05501,       56.17997, 60.00000, 0.01285,            -0.03999, -0.03572, -0.02756,   24.83139, 1537,      3,3,3    
6612880.00000, 0.00000, -0.00060,   0.24676, -0.99757, -0.00249,          -0.00003, -0.00050,   0.07843, -0.06254, 0.05501,       56.17389, 60.00000, 0.01561,            -0.03999, -0.03586, -0.02743,   24.83152, 1537,      3,3,3    
6622880.00000, 0.00000, 0.00088,   0.26677, -1.00373, -0.00249,           -0.00004, 0.00013,   0.00541, -0.06583, 0.05501,        56.17400, 60.00000, 0.01400,            -0.03000, -0.03597, -0.02463,   24.82174, 1537,      3,3,3    
6632880.00000, -0.00000, -0.00108,   0.18131, -1.00033, -0.00249,         -0.00004, -0.00096,   0.04992, -0.07211, 0.05501,       56.18028, 60.00000, 0.01206,            -0.03999, -0.03604, -0.02357,   24.81809, 1537,      3,3,3    
6642880.00000, -0.00002, -0.00254,   0.10933, -0.99406, -0.00249,         -0.00004, 0.00070,   0.00038, -0.06914, 0.05501,        56.19582, 60.00000, 0.01119,            -0.03999, -0.03687, -0.03485,   24.86387, 1538,      3,3,3    
6652880.00000, -0.00005, -0.00204,   0.15741, -0.98800, 0.00923,          -0.00002, 0.00182,   0.01031, -0.06595, 0.04077,        56.19901, 60.00000, 0.01360,            -0.03999, -0.03766, -0.04157,   24.89280, 1538,      3,3,3    
6662880.00000, -0.00005, 0.00140,   0.19239, -0.98789, 0.00923,           0.00001, 0.00380,   0.00532, -0.06606, 0.04077,         56.20518, 60.00000, 0.01451,            -0.03000, -0.03535, -0.00886,   24.76027, 1536,      3,3,3    
6672880.00000, -0.00005, 0.00118,   0.29742, -0.99757, 0.00923,           0.00004, 0.00231,   0.08396, -0.06275, 0.04077,         56.18337, 60.00000, 0.01733,            -0.03000, -0.03538, -0.00788,   24.75698, 1536,      3,3,3    
6682880.00000, -0.00004, -0.00009,   0.24498, -1.00363, 0.00923,          0.00005, -0.00013,   -0.01347, -0.06594, 0.04077,       56.18017, 60.00000, 0.01336,            -0.03000, -0.03312, 0.02058,   24.64014, 1535,      3,3,3    
6692880.00000, -0.00004, 0.00014,   0.22507, -1.00681, 0.00923,           0.00006, 0.00095,   -0.00753, -0.06009, 0.04077,        56.19572, 60.00000, 0.01200,            -0.03999, -0.03323, 0.01602,   24.65752, 1535,      3,3,3    
6702880.00000, -0.00004, 0.00114,   0.18933, -1.00681, 0.00766,           0.00007, 0.00136,   0.01400, -0.06052, 0.05729,         56.21466, 60.00000, 0.01016,            -0.03000, -0.03335, 0.01324,   24.66837, 1535,      3,3,3    
6712880.00000, -0.00003, 0.00097,   0.16743, -1.00671, 0.00766,           0.00009, 0.00121,   -0.02989, -0.06063, 0.05729,        56.22083, 60.00000, 0.01189,            -0.03000, -0.03122, 0.03682,   24.57035, 1534,      3,3,3    
6722880.00000, -0.00002, 0.00138,   0.15389, -1.00054, 0.00766,           0.00009, -0.00094,   0.03945, -0.05733, 0.05729,        56.22072, 60.00000, 0.01417,            -0.01000, -0.02690, 0.08765,   24.36056, 1531,      3,3,3    
6732880.00000, -0.00001, 0.00051,   0.26259, -1.00681, 0.00766,           0.00010, 0.00009,   0.05511, -0.06030, 0.05729,         56.20518, 60.00000, 0.01568,            -0.01000, -0.02205, 0.13533,   24.15986, 1528,      3,3,3    
6742880.00000, -0.00001, -0.00004,   0.29376, -1.01309, 0.00766,          0.00010, 0.00059,   0.06709, -0.06349, 0.05729,         56.19912, 60.00000, 0.01440,            -0.03000, -0.02055, 0.13755,   24.14407, 1528,      3,3,3    
6752880.00000, -0.00001, 0.00041,   0.22676, -1.01904, 0.00275,           0.00010, 0.00037,   0.02858, -0.06701, 0.05379,         56.21158, 60.00000, 0.01146,            -0.03000, -0.01926, 0.13542,   24.14522, 1528,      3,3,3    
6762880.00000, -0.00001, -0.00068,   0.14124, -1.01893, 0.00275,          0.00008, -0.00292,   0.05655, -0.06733, 0.05379,        56.22722, 60.00000, 0.01062,            -0.03000, -0.01743, 0.13995,   24.11903, 1528,      3,3,3    
6772880.00000, -0.00001, 0.00006,   0.09359, -1.00330, 0.00275,           0.00007, -0.00001,   0.01778, -0.06712, 0.05379,        56.23658, 60.00000, 0.01267,            0.00000, -0.01278, 0.18127,   23.94260, 1525,      3,3,3    
6782880.00000, -0.00001, 0.00037,   0.09088, -1.00330, 0.00275,           0.00008, 0.00155,   0.01310, -0.06712, 0.05379,         56.23658, 60.00000, 0.01201,            -0.03000, -0.01380, 0.14597,   24.07821, 1527,      3,3,3    
6792880.00000, -0.00002, -0.00107,   0.19495, -1.00330, 0.00275,          0.00008, -0.00034,   -0.01928, -0.06712, 0.05379,       56.23658, 60.00000, 0.01217,            -0.03000, -0.01497, 0.11255,   24.20778, 1529,      3,3,3    
6802880.00000, -0.00003, -0.00088,   0.35185, -1.01287, 0.00036,          0.00008, -0.00007,   0.05512, -0.06393, 0.04694,        56.22094, 60.00000, 0.01689,            0.00000, -0.01396, 0.11227,   24.20402, 1529,      3,3,3    
6812880.00000, -0.00003, -0.00093,   0.29601, -1.01893, 0.00036,          0.00008, 0.00074,   0.02868, -0.06733, 0.04694,         56.22722, 60.00000, 0.01303,            0.00000, -0.01084, 0.13704,   24.09641, 1527,      3,3,3    
6822880.00000, -0.00005, -0.00125,   0.16069, -1.01904, 0.00036,          0.00012, 0.00500,   0.07617, -0.06744, 0.04694,         56.23051, 60.00000, 0.01219,            0.00000, -0.00874, 0.14411,   24.05940, 1527,      3,3,3    
6832880.00000, -0.00005, 0.00062,   0.09908, -1.00947, 0.00036,           0.00015, 0.00190,   0.02683, -0.07064, 0.04694,         56.24616, 60.00000, 0.01294,            -0.03000, -0.01070, 0.10091,   24.22891, 1529,      3,3,3    
6842880.00000, -0.00005, 0.00031,   0.11898, -1.00330, 0.00036,           0.00015, -0.00048,   0.04672, -0.06734, 0.04694,        56.24605, 60.00000, 0.01230,            -0.03000, -0.01276, 0.06098,   24.38690, 1531,      3,3,3    
6852880.00000, -0.00006, -0.00209,   0.19852, -1.00001, 0.00090,          0.00015, -0.00008,   0.07169, -0.07329, 0.04042,        56.23669, 60.00000, 0.01446,            -0.01000, -0.01181, 0.06313,   24.37425, 1531,      3,3,3    
6862880.00000, -0.00007, -0.00033,   0.26288, -1.00969, 0.00090,          0.00015, -0.00078,   -0.01842, -0.06999, 0.04042,       56.21487, 60.00000, 0.01546,            0.00000, -0.01172, 0.05670,   24.39765, 1531,      3,3,3    
6872880.00000, -0.00007, 0.00004,   0.31000, -1.01904, 0.00090,           0.00015, 0.00018,   0.00216, -0.06722, 0.04042,         56.22105, 60.00000, 0.01289,            -0.04999, -0.01403, 0.01834,   24.55124, 1533,      3,3,3    
6882880.00000, -0.00008, -0.00061,   0.23326, -1.01904, 0.00090,          0.00016, -0.00004,   0.03537, -0.06722, 0.04042,        56.22105, 60.00000, 0.01190,            -0.03000, -0.01630, -0.01274,   24.67747, 1535,      3,3,3    
6892880.00000, -0.00007, -0.00031,   0.15205, -1.01564, 0.00090,          0.00016, -0.00064,   0.07136, -0.07372, 0.04042,        56.23680, 60.00000, 0.01151,            -0.03000, -0.01850, -0.03806,   24.78210, 1537,      3,3,3    
6902880.00000, -0.00008, -0.00042,   0.07494, -0.99660, -0.00714,         0.00014, -0.00162,   0.03986, -0.07979, 0.04889,        56.25243, 60.00000, 0.01197,            -0.03000, -0.01907, -0.04039,   24.79356, 1537,      3,3,3    
6912880.00000, -0.00009, 0.00013,   0.16606, -0.99660, -0.00714,          0.00014, -0.00011,   0.00849, -0.07979, 0.04889,        56.25243, 60.00000, 0.01276,            -0.03000, -0.02109, -0.06034,   24.87763, 1538,      3,3,3    
6922880.00000, -0.00008, 0.00047,   0.26849, -1.00947, -0.00714,          0.00014, -0.00062,   -0.03417, -0.07064, 0.04889,       56.24616, 60.00000, 0.01503,            -0.03000, -0.02148, -0.06045,   24.88020, 1538,      3,3,3    
6932880.00000, -0.00007, 0.00085,   0.31282, -1.01893, -0.00714,          0.00014, 0.00022,   -0.01972, -0.06776, 0.04889,        56.24616, 60.00000, 0.01440,            -0.03000, -0.02331, -0.07678,   24.94998, 1539,      3,3,3    
6942880.00000, -0.00006, 0.00062,   0.27479, -1.02840, -0.00714,          0.00014, 0.00146,   -0.02979, -0.06489, 0.04889,        56.24616, 60.00000, 0.01247,            -0.03000, -0.02350, -0.06862,   24.92069, 1538,      3,3,3    
6952880.00000, -0.00006, 0.00048,   0.20450, -1.03116, -0.00012,          0.00014, -0.00026,   0.14481, -0.07447, 0.05374,        56.25255, 60.00000, 0.01308,            -0.03000, -0.02358, -0.06076,   24.89202, 1538,      3,3,3    
6962880.00000, -0.00006, 0.00015,   0.11500, -1.01840, -0.00012,          0.00015, 0.00019,   0.02190, -0.08352, 0.05374,         56.25265, 60.00000, 0.01291,            -0.01000, -0.02130, -0.02489,   24.74770, 1536,      3,3,3    
6972880.00000, -0.00005, 0.00057,   0.12101, -1.00606, -0.00012,          0.00015, -0.00016,   0.01578, -0.07713, 0.05374,        56.26191, 60.00000, 0.01208,            -0.01000, -0.01980, -0.00200,   24.65546, 1535,      3,3,3    
6982880.00000, -0.00005, 0.00043,   0.18181, -1.00936, -0.00012,          0.00015, 0.00037,   -0.00167, -0.07096, 0.05374,        56.26180, 60.00000, 0.01337,            -0.03000, -0.01985, -0.00204,   24.65597, 1535,      3,3,3    
6992880.00000, -0.00005, -0.00069,   0.25171, -1.01872, -0.00012,         0.00016, 0.00117,   -0.04406, -0.06820, 0.05374,        56.26797, 60.00000, 0.01303,            0.00000, -0.01760, 0.02766,   24.53487, 1533,      3,3,3    
7002880.00000, -0.00005, -0.00040,   0.34243, -1.01872, 0.00536,          0.00017, 0.00075,   0.05109, -0.06820, 0.04923,         56.26797, 60.00000, 0.01336,            -0.03000, -0.01697, 0.03164,   24.51719, 1533,      3,3,3    
7012880.00000, -0.00006, 0.00025,   0.24275, -1.03105, 0.00536,           0.00019, 0.00090,   0.06905, -0.07480, 0.04923,         56.26819, 60.00000, 0.01383,            -0.03000, -0.01717, 0.02507,   24.54222, 1533,      3,3,3    
7022880.00000, -0.00005, -0.00005,   0.15536, -1.02775, 0.00536,          0.00019, 0.00021,   0.04247, -0.08097, 0.04923,         56.26829, 60.00000, 0.01351,            -0.03000, -0.01890, -0.00040,   24.64501, 1535,      3,3,3    
7032880.00000, -0.00002, 0.00366,   0.17108, -1.02159, 0.00536,           0.00017, -0.00218,   0.02443, -0.07789, 0.04923,        56.27766, 60.00000, 0.01253,            0.01000, -0.01752, 0.01884,   24.56691, 1534,      3,3,3    
7042880.00000, 0.00001, 0.00140,   0.21739, -1.02159, 0.00536,            0.00015, 0.00027,   0.04122, -0.07789, 0.04923,         56.27766, 60.00000, 0.01299,            -0.03000, -0.01925, -0.00652,   24.66957, 1535,      3,3,3    
7052880.00000, 0.00002, 0.00034,   0.29485, -1.03435, 0.00081,            0.00015, -0.00010,   -0.00822, -0.06885, 0.05371,       56.27755, 60.00000, 0.01267,            -0.03000, -0.01944, -0.00845,   24.67774, 1535,      3,3,3    
7062880.00000, 0.00002, -0.00026,   0.33862, -1.04051, 0.00081,           0.00015, -0.00047,   0.07591, -0.07215, 0.05371,        56.27766, 60.00000, 0.01429,            -0.01000, -0.01958, -0.00700,   24.67328, 1535,      3,3,3    
7072880.00000, 0.00002, -0.00150,   0.33881, -1.04338, 0.00081,           0.00015, 0.00019,   0.10145, -0.08162, 0.05371,         56.27788, 60.00000, 0.01396,            -0.01000, -0.01743, 0.02005,   24.56239, 1534,      3,3,3    
7082880.00000, -0.00000, -0.00178,   0.18593, -1.04966, 0.00081,          0.00016, 0.00134,   0.04892, -0.08481, 0.05371,         56.27181, 60.00000, 0.01334,            -0.02999, -0.01916, -0.00341,   24.65750, 1535,      3,3,3    
7092880.00000, -0.00001, -0.00057,   0.13335, -1.03711, 0.00081,          0.00017, 0.00093,   -0.01467, -0.07843, 0.05371,        56.28395, 60.00000, 0.01170,            -0.02999, -0.02084, -0.02334,   24.73961, 1536,      3,3,3    
7102880.00000, -0.00002, -0.00114,   0.12426, -1.03381, 0.00383,          0.00018, 0.00044,   -0.01117, -0.08460, 0.04564,        56.28405, 60.00000, 0.01216,            -0.03000, -0.02244, -0.04112,   24.81347, 1537,      3,3,3    
7112880.00000, 0.00000, -0.00044,   0.20633, -1.03094, 0.00383,           0.00016, -0.00712,   -0.07295, -0.07534, 0.04564,       56.29330, 60.00000, 0.01294,            -0.03000, -0.02396, -0.05484,   24.87204, 1538,      3,3,3    
7122880.00000, 0.00000, 0.00002,   0.32050, -1.03424, 0.00383,            0.00011, -0.00154,   0.03852, -0.06917, 0.04564,        56.29319, 60.00000, 0.01327,            -0.01000, -0.02382, -0.04455,   24.83357, 1537,      3,3,3    
7132880.00000, 0.00000, 0.00092,   0.23628, -1.04668, 0.00383,            0.00010, -0.00134,   0.09818, -0.07567, 0.04564,        56.28724, 60.00000, 0.01378,            -0.01000, -0.02211, -0.01663,   24.72148, 1536,      3,3,3    
7142880.00000, 0.00000, -0.00099,   0.20127, -1.04668, 0.00383,           0.00010, 0.00086,   -0.01173, -0.07567, 0.04564,        56.28724, 60.00000, 0.01296,            -0.01000, -0.02193, -0.01282,   24.70640, 1535,      3,3,3    
7152880.00000, -0.00001, 0.00008,   0.20612, -1.04657, 0.00129,           0.00010, 0.00008,   0.02634, -0.07578, 0.05212,         56.29341, 60.00000, 0.01197,            -0.01000, -0.02173, -0.00712,   24.68436, 1535,      3,3,3    
7162880.00000, 0.00000, 0.00121,   0.12198, -1.03711, 0.00129,            0.00010, -0.00012,   0.05095, -0.07864, 0.05212,        56.29341, 60.00000, 0.01245,            -0.03000, -0.02153, -0.00287,   24.66754, 1535,      3,3,3    
7172880.00000, 0.00000, -0.00059,   0.12222, -1.02753, 0.00129,           0.00012, 0.00188,   0.02698, -0.08162, 0.05212,         56.29958, 60.00000, 0.01194,            -0.03000, -0.02134, -0.00137,   24.66103, 1535,      3,3,3    
7182880.00000, -0.00001, -0.00131,   0.33727, -1.03711, 0.00129,          0.00013, 0.00077,   0.09613, -0.07864, 0.05212,         56.29341, 60.00000, 0.01357,            0.00000, -0.02037, 0.01279,   24.60420, 1534,      3,3,3    
7192880.00000, -0.00001, 0.00020,   0.23408, -1.03721, 0.00129,           0.00014, 0.00060,   -0.03391, -0.07854, 0.05212,        56.28724, 60.00000, 0.01326,            -0.01000, -0.02019, 0.01380,   24.59924, 1534,      3,3,3    
7202880.00000, -0.00001, 0.00090,   0.33287, -1.04657, -0.01507,          0.00014, -0.00315,   0.01572, -0.07556, 0.05637,        56.28394, 60.00000, 0.01395,            -0.01000, -0.02002, 0.01496,   24.59437, 1534,      3,3,3    
7212880.00000, -0.00000, -0.00026,   0.27889, -1.04944, -0.01507,         0.00012, -0.00169,   0.14266, -0.08503, 0.05637,        56.28416, 60.00000, 0.01265,            -0.02999, -0.01990, 0.01360,   24.59875, 1534,      3,3,3    
7222880.00000, -0.00001, -0.00078,   0.12904, -1.04008, -0.01507,         0.00011, 0.00004,   0.05187, -0.08801, 0.05637,         56.28746, 60.00000, 0.01199,            -0.03000, -0.01981, 0.01169,   24.60497, 1534,      3,3,3    
7232880.00000, -0.00002, 0.00044,   0.21022, -1.04327, -0.01507,          0.00011, 0.00008,   0.00525, -0.08195, 0.05637,         56.29353, 60.00000, 0.01309,            -0.02999, -0.01899, 0.02025,   24.56928, 1534,      3,3,3    
7242880.00000, -0.00001, 0.00023,   0.17356, -1.03721, -0.01507,          0.00011, -0.00025,   0.05474, -0.07854, 0.05637,        56.28724, 60.00000, 0.01441,            -0.03000, -0.02049, -0.00232,   24.66029, 1535,      3,3,3    
7252880.00000, -0.00002, -0.00184,   0.21681, -1.03721, 0.02803,          0.00016, 0.00515,   0.03168, -0.07832, 0.04206,         56.27778, 60.00000, 0.01427,            -0.01000, -0.02043, -0.00066,   24.65384, 1535,      3,3,3    
7262880.00000, -0.00004, -0.00062,   0.25639, -1.04338, 0.02803,          0.00020, 0.00213,   -0.00796, -0.08162, 0.04206,        56.27788, 60.00000, 0.01268,            -0.01000, -0.02186, -0.01600,   24.71791, 1536,      3,3,3    
7272880.00000, -0.00004, 0.00580,   0.28083, -1.05273, 0.02803,           0.00021, -0.00346,   0.05250, -0.07908, 0.04206,        56.29352, 60.00000, 0.01166,            -0.02999, -0.02325, -0.03260,   24.78636, 1537,      3,3,3    
7282880.00000, 0.00000, 0.00098,   0.24859, -1.05273, 0.02803,            0.00018, -0.00050,   -0.07529, -0.07908, 0.04206,       56.29352, 60.00000, 0.01245,            -0.01000, -0.02077, 0.00122,   24.64872, 1535,      3,3,3    
7292880.00000, 0.00003, 0.00199,   0.19024, -1.04657, 0.02803,            0.00017, -0.00126,   0.04947, -0.07578, 0.04206,        56.29341, 60.00000, 0.01245,            -0.02999, -0.02216, -0.01576,   24.71843, 1536,      3,3,3    
7302880.00000, 0.00004, 0.00016,   0.17365, -1.04657, -0.00503,           0.00016, -0.00123,   0.05359, -0.07578, 0.05294,        56.29341, 60.00000, 0.01359,            -0.01000, -0.02044, 0.00887,   24.61866, 1534,      3,3,3    
7312880.00000, 0.00002, -0.00195,   0.22886, -1.04657, -0.00503,          0.00016, 0.00129,   0.01830, -0.07578, 0.05294,         56.29341, 60.00000, 0.01310,            -0.01000, -0.01877, 0.02873,   24.53691, 1533,      3,3,3    
7322880.00000, 0.00001, -0.00094,   0.37259, -1.05273, -0.00503,          0.00017, 0.00104,   -0.00853, -0.07908, 0.05294,        56.29352, 60.00000, 0.01326,            -0.01000, -0.01869, 0.02663,   24.54460, 1533,      3,3,3    
7332880.00000, 0.00000, 0.00101,   0.19517, -1.06220, -0.00503,           0.00018, -0.00049,   0.03368, -0.07643, 0.05294,        56.30299, 60.00000, 0.01227,            -0.01000, -0.01713, 0.04264,   24.47706, 1532,      3,3,3    
7342880.00000, 0.00001, 0.00154,   0.33748, -1.07155, -0.00503,           0.00018, 0.00050,   -0.02659, -0.07345, 0.05294,        56.29969, 60.00000, 0.01258,            -0.02999, -0.01721, 0.03587,   24.50274, 1533,      3,3,3    
7352880.00000, 0.00003, 0.00054,   0.18474, -1.07166, -0.00080,           0.00019, -0.00046,   0.04167, -0.07334, 0.05477,        56.29353, 60.00000, 0.01308,            -0.02999, -0.01883, 0.01198,   24.59899, 1534,      3,3,3    
7362880.00000, 0.00003, -0.00038,   0.14687, -1.06209, -0.00080,          0.00017, -0.00131,   0.06443, -0.07632, 0.05477,        56.29969, 60.00000, 0.01326,            -0.02999, -0.02042, -0.00780,   24.68012, 1535,      3,3,3    
7372880.00000, 0.00002, -0.00068,   0.30064, -1.06550, -0.00080,          0.00017, 0.00035,   0.01368, -0.07026, 0.05477,         56.30289, 60.00000, 0.01323,            -0.02999, -0.02045, -0.01028,   24.68974, 1535,      3,3,3    
7382880.00000, 0.00002, 0.00107,   0.25795, -1.07485, -0.00080,           0.00018, 0.00033,   -0.02796, -0.06750, 0.05477,        56.30906, 60.00000, 0.01321,            -0.02999, -0.02201, -0.03094,   24.77382, 1536,      3,3,3    
7392880.00000, 0.00003, 0.00024,   0.31048, -1.07815, -0.00080,           0.00017, 0.00053,   0.06023, -0.06133, 0.05477,         56.30894, 60.00000, 0.01434,            0.00000, -0.01968, 0.00340,   24.63523, 1535,      3,3,3    
7402880.00000, 0.00003, 0.00092,   0.18988, -1.07826, 0.01077,            0.00019, 0.00177,   -0.03844, -0.06122, 0.05675,        56.30278, 60.00000, 0.01404,            -0.02999, -0.02121, -0.01460,   24.70934, 1536,      3,3,3    
7412880.00000, 0.00003, 0.00117,   0.25783, -1.07826, 0.01077,            0.00020, 0.00016,   0.02998, -0.06100, 0.05675,         56.29330, 60.00000, 0.01456,            -0.02999, -0.02118, -0.01405,   24.70725, 1536,      3,3,3    
7422880.00000, 0.00004, -0.00014,   0.26209, -1.08454, 0.01077,           0.00020, 0.00033,   0.05992, -0.06419, 0.05675,         56.28724, 60.00000, 0.01426,            0.00000, -0.01884, 0.01710,   24.58023, 1534,      3,3,3    
7432880.00000, 0.00005, 0.00202,   0.21335, -1.08443, 0.01077,            0.00021, 0.00062,   -0.02845, -0.06430, 0.05675,        56.29342, 60.00000, 0.01100,            0.00000, -0.01657, 0.04366,   24.47046, 1532,      3,3,3    
7442880.00000, 0.00006, 0.00054,   0.26097, -1.09048, 0.01077,            0.00021, -0.00040,   0.11736, -0.06794, 0.05675,        56.30917, 60.00000, 0.01174,            -0.02999, -0.01596, 0.04718,   24.45451, 1532,      3,3,3    
7452880.00000, 0.00005, 0.00015,   0.19920, -1.08719, -0.00147,           0.00021, -0.00063,   0.06116, -0.07433, 0.05297,        56.31875, 60.00000, 0.01317,            -0.01000, -0.01465, 0.05636,   24.41369, 1532,      3,3,3    
7462880.00000, 0.00006, -0.00024,   0.21067, -1.08718, -0.00147,          0.00020, 0.00013,   0.01535, -0.07411, 0.05297,         56.30927, 60.00000, 0.01482,            -0.01000, -0.01268, 0.07358,   24.34011, 1531,      3,3,3    
7472880.00000, 0.00006, 0.00066,   0.15900, -1.08729, -0.00147,           0.00019, -0.00076,   0.01119, -0.07400, 0.05297,        56.30310, 60.00000, 0.01421,            -0.02999, -0.01315, 0.05887,   24.39676, 1531,      3,3,3    
7482880.00000, 0.00005, -0.00067,   0.24548, -1.08740, -0.00147,          0.00020, -0.00017,   0.05855, -0.07366, 0.05297,        56.28746, 60.00000, 0.01329,            -0.01000, -0.01366, 0.04772,   24.44071, 1532,      3,3,3    
7492880.00000, 0.00006, -0.00017,   0.17794, -1.08729, -0.00147,          0.00020, 0.00174,   0.04949, -0.07378, 0.05297,         56.29364, 60.00000, 0.01181,            0.00000, -0.01189, 0.06638,   24.36260, 1531,      3,3,3    
7502880.00000, 0.00006, -0.00002,   0.26972, -1.09016, 0.00496,           0.00021, 0.00061,   0.09653, -0.08347, 0.05214,         56.30333, 60.00000, 0.01161,            -0.02999, -0.01406, 0.03062,   24.50599, 1533,      3,3,3    
7512880.00000, 0.00003, -0.00170,   0.17869, -1.08718, 0.00496,           0.00024, 0.00269,   -0.01010, -0.07411, 0.05214,        56.30927, 60.00000, 0.01239,            -0.02999, -0.01623, -0.00247,   24.63903, 1535,      3,3,3    
7522880.00000, 0.00001, -0.00164,   0.18253, -1.08113, 0.00496,           0.00027, 0.00177,   -0.01987, -0.07070, 0.05214,        56.30300, 60.00000, 0.01435,            0.00000, -0.01379, 0.02502,   24.52513, 1533,      3,3,3    
7532880.00000, 0.00000, 0.00045,   0.15716, -1.07166, 0.00496,            0.00028, 0.00092,   0.06652, -0.07334, 0.05214,         56.29353, 60.00000, 0.01569,            -0.01000, -0.01450, 0.01382,   24.57009, 1534,      3,3,3    
7542880.00000, 0.00001, -0.00014,   0.20341, -1.07177, 0.00496,           0.00028, -0.00104,   0.02152, -0.07301, 0.05214,        56.27788, 60.00000, 0.01333,            -0.02999, -0.01447, 0.01289,   24.57339, 1534,      3,3,3    
7552880.00000, 0.00000, 0.00002,   0.28759, -1.07166, -0.00068,           0.00027, -0.00058,   0.06406, -0.07312, 0.05187,        56.28404, 60.00000, 0.01281,            -0.01000, -0.01518, 0.00345,   24.61212, 1534,      3,3,3    
7562880.00000, 0.00001, 0.00014,   0.15071, -1.06550, -0.00068,           0.00027, 0.00078,   -0.04182, -0.06982, 0.05187,        56.28393, 60.00000, 0.01313,            0.00000, -0.01511, 0.00259,   24.61465, 1534,      3,3,3    
7572880.00000, 0.00001, 0.00027,   0.35698, -1.07837, -0.00068,           0.00027, -0.00035,   -0.08131, -0.06067, 0.05187,       56.27766, 60.00000, 0.01377,            -0.01000, -0.01582, -0.00604,   24.65065, 1535,      3,3,3    
7582880.00000, 0.00001, -0.00045,   0.28182, -1.07837, -0.00068,          0.00027, 0.00007,   0.09234, -0.06067, 0.05187,         56.27766, 60.00000, 0.01412,            -0.01000, -0.01498, 0.00642,   24.60014, 1534,      3,3,3    
7592880.00000, 0.00001, -0.00040,   0.20155, -1.08123, -0.00068,          0.00026, 0.00005,   0.05783, -0.06992, 0.05187,         56.26840, 60.00000, 0.01366,            0.00000, -0.01491, 0.00732,   24.59621, 1534,      3,3,3    
7602880.00000, 0.00001, 0.00216,   0.28167, -1.08123, -0.04395,           0.00025, -0.00891,   0.13060, -0.06992, 0.06302,        56.26840, 60.00000, 0.01399,            -0.02999, -0.01563, -0.00403,   24.64209, 1535,      3,3,3    
7612880.00000, 0.00001, 0.00055,   0.08771, -1.07188, -0.04395,           0.00020, -0.00279,   0.04114, -0.07268, 0.06302,        56.26224, 60.00000, 0.01305,            -0.02999, -0.01637, -0.01591,   24.68934, 1535,      3,3,3    
7622880.00000, 0.00003, 0.00108,   0.23489, -1.07475, -0.04395,           0.00018, 0.00018,   0.07278, -0.08215, 0.06302,         56.26246, 60.00000, 0.01337,            -0.01000, -0.01554, -0.00435,   24.64263, 1535,      3,3,3    
7632880.00000, 0.00003, 0.00038,   0.32438, -1.08762, -0.04395,           0.00017, -0.00161,   -0.05426, -0.07300, 0.06302,       56.25617, 60.00000, 0.01353,            -0.02999, -0.01778, -0.03269,   24.75898, 1536,      3,3,3    
7642880.00000, 0.00004, -0.00091,   0.23662, -1.09368, -0.04395,          0.00016, -0.00054,   0.06191, -0.07619, 0.06302,        56.25299, 60.00000, 0.01308,            -0.02999, -0.01992, -0.05421,   24.84914, 1537,      3,3,3    
7652880.00000, 0.00002, -0.00034,   0.21284, -1.08708, 0.00386,           0.00016, 0.00048,   0.17839, -0.08853, 0.05017,         56.25320, 60.00000, 0.01324,            -0.01000, -0.01889, -0.03643,   24.77830, 1536,      3,3,3    
7662880.00000, 0.00001, -0.00156,   0.14455, -1.08708, 0.00386,           0.00016, 0.00013,   0.01717, -0.08853, 0.05017,         56.25320, 60.00000, 0.01340,            -0.02999, -0.02093, -0.06097,   24.87908, 1538,      3,3,3    
7672880.00000, 0.00000, -0.00029,   0.09971, -1.06880, 0.00386,           0.00018, 0.00117,   0.01910, -0.07841, 0.05017,         56.24053, 60.00000, 0.01440,            -0.02999, -0.02288, -0.08418,   24.97479, 1539,      3,3,3    
7682880.00000, 0.00001, 0.00075,   0.15565, -1.06593, 0.00386,            0.00018, 0.00038,   -0.09900, -0.06872, 0.05017,        56.23084, 60.00000, 0.01460,            0.00000, -0.02017, -0.04570,   24.81888, 1537,      3,3,3    
7692880.00000, 0.00002, 0.00150,   0.12008, -1.06274, 0.00386,            0.00018, 0.00021,   0.06919, -0.07456, 0.05017,         56.21530, 60.00000, 0.01449,            -0.02999, -0.02058, -0.05129,   24.84157, 1537,      3,3,3    
7702880.00000, 0.00004, 0.00208,   0.32749, -1.06902, -0.00201,           0.00018, -0.00069,   0.03546, -0.07753, 0.06282,        56.19977, 60.00000, 0.01422,            -0.02999, -0.02097, -0.04947,   24.83727, 1537,      3,3,3    
7712880.00000, 0.00006, 0.00255,   0.30582, -1.07519, -0.00201,           0.00017, -0.00044,   0.05675, -0.08060, 0.06282,        56.19041, 60.00000, 0.01359,            -0.02999, -0.02278, -0.06408,   24.90034, 1538,      3,3,3    
7722880.00000, 0.00009, 0.00375,   0.19826, -1.08136, -0.00201,           0.00017, 0.00001,   0.07590, -0.08390, 0.06282,         56.19051, 60.00000, 0.01362,            -0.01000, -0.02139, -0.03597,   24.78915, 1537,      3,3,3    
7732880.00000, 0.00010, -0.00153,   0.15095, -1.08147, -0.00201,          0.00019, 0.00143,   0.10496, -0.08379, 0.06282,         56.18435, 60.00000, 0.01381,            -0.02999, -0.02301, -0.04802,   24.84192, 1537,      3,3,3    
7742880.00000, 0.00008, -0.00179,   0.12677, -1.07530, -0.00201,          0.00020, 0.00169,   -0.00788, -0.08049, 0.06282,        56.18423, 60.00000, 0.01348,            -0.01000, -0.02294, -0.03975,   24.81091, 1537,      3,3,3    
7752880.00000, 0.00006, -0.00226,   0.18898, -1.07530, 0.01463,           0.00022, 0.00245,   0.04026, -0.08027, 0.04056,         56.17477, 60.00000, 0.01433,            -0.02999, -0.02284, -0.03125,   24.77912, 1536,      3,3,3    
7762880.00000, 0.00004, -0.00296,   0.09453, -1.06254, 0.01463,           0.00023, 0.00160,   0.04024, -0.08910, 0.04056,         56.16541, 60.00000, 0.01419,            -0.02999, -0.02269, -0.02464,   24.75387, 1536,      3,3,3    
7772880.00000, 0.00004, 0.00162,   0.18476, -1.06265, 0.01463,            0.00024, 0.00004,   0.01471, -0.08899, 0.04056,         56.15923, 60.00000, 0.01502,            -0.02999, -0.02402, -0.03822,   24.81091, 1537,      3,3,3    
7782880.00000, 0.00004, -0.00071,   0.27857, -1.06893, 0.01463,           0.00025, 0.00028,   0.12551, -0.09195, 0.04056,         56.14370, 60.00000, 0.01474,            -0.01000, -0.02222, -0.00800,   24.69029, 1535,      3,3,3    
7792880.00000, 0.00003, -0.00007,   0.24659, -1.07223, 0.01463,           0.00025, -0.00007,   -0.06911, -0.08578, 0.04056,       56.14359, 60.00000, 0.01418,            -0.02999, -0.02195, -0.00380,   24.67327, 1535,      3,3,3    
7802916.00000, 0.00003, 0.00032,   0.33700, -1.07234, -0.00268,           0.00024, -0.00092,   0.09711, -0.08567, 0.05369,        56.13742, 60.00000, 0.01462,            -0.01000, -0.02167, 0.00153,   24.65242, 1535,      3,3,3    
7812916.00000, 0.00003, -0.00020,   0.07685, -1.07223, -0.00268,          0.00023, -0.00034,   0.00677, -0.08556, 0.05369,        56.13412, 60.00000, 0.01366,            -0.04999, -0.02295, -0.01480,   24.71879, 1536,      3,3,3    
7822916.00000, 0.00003, -0.00095,   0.23468, -1.06617, -0.00268,          0.00023, 0.00104,   -0.05168, -0.08215, 0.05369,        56.12783, 60.00000, 0.01577,            0.00000, -0.01958, 0.02868,   24.54121, 1533,      3,3,3    
7832916.00000, 0.00002, 0.00018,   0.32135, -1.07574, -0.00268,           0.00025, 0.00109,   -0.03244, -0.07894, 0.05369,        56.11219, 60.00000, 0.01552,            -0.01000, -0.01787, 0.04596,   24.46886, 1532,      3,3,3    
7842968.00000, 0.00003, 0.00048,   0.35191, -1.09517, -0.00268,           0.00025, -0.00028,   -0.12832, -0.05697, 0.05369,       56.08674, 60.00000, 0.01637,            -0.01000, -0.01550, 0.07207,   24.36044, 1531,      3,3,3    
7852968.00000, 0.00002, -0.00008,   0.27159, -1.10185, 0.00594,           0.00026, 0.00071,   -0.10903, -0.04428, 0.05156,        56.07087, 60.00000, 0.01505,            -0.01000, -0.01328, 0.09153,   24.27694, 1530,      3,3,3    
7862968.00000, 0.00002, -0.00032,   0.15297, -1.09907, 0.00594,           0.00027, 0.00035,   -0.08045, -0.03470, 0.05156,        56.06447, 60.00000, 0.01423,            -0.01000, -0.01198, 0.09224,   24.26752, 1530,      3,3,3    
7872968.00000, 0.00002, -0.00005,   0.13479, -1.09567, 0.00594,           0.00026, -0.00062,   0.02988, -0.04077, 0.05156,        56.06129, 60.00000, 0.01505,            -0.02999, -0.01242, 0.07144,   24.34655, 1531,      3,3,3    
7882968.00000, 0.00002, 0.00080,   0.19642, -1.09290, 0.00594,            0.00025, -0.00038,   -0.01663, -0.03119, 0.05156,       56.05489, 60.00000, 0.01393,            0.00000, -0.01216, 0.06610,   24.36507, 1531,      3,3,3    
7892968.00000, 0.00002, 0.00014,   0.14838, -1.09907, 0.00594,            0.00026, 0.00027,   0.05015, -0.03448, 0.05156,         56.05500, 60.00000, 0.01377,            -0.02999, -0.01280, 0.04662,   24.44017, 1532,      3,3,3    
7902968.00000, 0.00003, 0.00005,   0.18559, -1.09618, 0.00594,            0.00026, 0.00039,   -0.07128, -0.02479, 0.05156,        56.04531, 60.00000, 0.01526,            -0.01000, -0.01196, 0.05154,   24.41781, 1532,      3,3,3    
7912968.00000, 0.00004, 0.00114,   0.21766, -1.09639, 0.00424,            0.00025, -0.00157,   0.04153, -0.02434, 0.05225,        56.02350, 60.00000, 0.01664,            -0.02999, -0.01273, 0.03815,   24.47124, 1532,      3,3,3    
7922968.00000, 0.00005, 0.00151,   0.36964, -1.09966, 0.00424,            0.00024, -0.00260,   -0.12691, -0.01794, 0.05225,       56.01391, 60.00000, 0.01635,            -0.02999, -0.01502, 0.00467,   24.60709, 1534,      3,3,3    
7932984.00000, 0.00006, 0.00005,   0.29597, -1.10982, 0.00424,            0.00024, 0.00275,   -0.03986, 0.00138, 0.05225,         55.97610, 60.00000, 0.01842,            -0.02999, -0.01502, -0.00149,   24.62945, 1534,      3,3,3    
7942984.00000, 0.00007, 0.00102,   0.19508, -1.10992, 0.00424,            0.00026, 0.00160,   -0.01577, 0.00172, 0.05225,         55.96045, 60.00000, 0.01686,            0.00000, -0.01348, 0.01915,   24.54521, 1533,      3,3,3    
7952996.00000, 0.00007, -0.00007,   0.13849, -1.10393, 0.00424,           0.00027, 0.00036,   -0.07893, 0.00590, 0.05225,         55.91959, 60.00000, 0.01862,            -0.02999, -0.01584, -0.01534,   24.68468, 1535,      3,3,3    
7962996.00000, 0.00007, 0.00005,   0.26588, -1.10730, 0.00423,            0.00027, -0.00083,   -0.04769, 0.01242, 0.05197,        55.90383, 60.00000, 0.02046,            -0.04999, -0.01818, -0.04774,   24.81646, 1537,      3,3,3    
7973052.00000, 0.00007, 0.00138,   0.19672, -1.10769, 0.00423,            0.00026, -0.00067,   0.03072, 0.01377, 0.05197,         55.84124, 60.00000, 0.02088,            -0.01000, -0.01887, -0.04832,   24.82193, 1537,      3,3,3    
7983108.00000, 0.00008, 0.00079,   0.32503, -1.11134, 0.00423,            0.00025, -0.00093,   -0.07989, 0.02130, 0.05197,        55.77855, 60.00000, 0.02464,            -0.02999, -0.01948, -0.05101,   24.83532, 1537,      3,3,3    
7993108.00000, 0.00010, 0.00103,   0.12088, -1.11160, 0.00423,            0.00023, -0.00130,   0.10437, 0.02276, 0.05197,         55.71269, 60.00000, 0.02518,            -0.01000, -0.01848, -0.03121,   24.75672, 1536,      3,3,3    
8003108.00000, 0.00011, 0.00020,   0.28248, -1.11207, 0.00423,            0.00022, 0.00028,   0.03050, 0.02445, 0.05197,          55.63446, 60.00000, 0.02737,            -0.01000, -0.01747, -0.01473,   24.69086, 1535,      3,3,3    
8013108.00000, 0.00011, 0.00037,   0.11626, -1.11872, 0.00335,            0.00021, -0.00215,   0.09748, 0.02310, 0.05372,         55.54688, 60.00000, 0.02836,            -0.01000, -0.01796, -0.01737,   24.70292, 1535,      3,3,3    
8023174.00000, 0.00012, 0.00568,   0.09294, -1.10667, 0.00335,            0.00020, 0.00502,   0.08598, 0.01634, 0.05372,          55.43748, 60.00000, 0.03424,            -0.03999, -0.02073, -0.05172,   24.84389, 1537,      3,3,3    
8033184.00000, 0.00016, 0.00258,   0.17761, -1.09189, 0.00335,            0.00024, 0.00227,   0.12442, 0.01968, 0.05372,          55.29655, 60.00000, 0.03496,            -0.02999, -0.02335, -0.08010,   24.96226, 1539,      3,3,3    
8043184.00000, 0.00018, 0.00178,   0.24357, -1.10511, 0.00335,            0.00024, -0.00036,   0.05114, 0.01644, 0.05372,         55.14648, 60.00000, 0.04159,            -0.02999, -0.02582, -0.10274,   25.05850, 1540,      3,3,3    
8053208.00000, 0.00019, 0.00064,   0.06284, -1.09047, 0.00335,            0.00024, -0.00077,   -0.03448, 0.02084, 0.05372,        54.95538, 60.00000, 0.04456,            -0.03999, -0.02888, -0.12543,   25.15772, 1542,      3,3,3    
8063208.00000, 0.00020, 0.00110,   0.30907, -1.09799, -0.00193,           0.00023, -0.00131,   0.01799, 0.03752, 0.05667,         54.75793, 60.00000, 0.04927,            -0.02999, -0.02867, -0.11221,   25.10820, 1541,      3,3,3    
8073232.00000, 0.00020, 0.00099,   0.17371, -1.09933, -0.00193,           0.00021, -0.00119,   0.00052, 0.04258, 0.05667,         54.52320, 60.00000, 0.05349,            -0.03999, -0.02911, -0.10227,   25.07343, 1540,      3,3,3    
8083232.00000, 0.00027, 0.01089,   0.11306, -1.09438, -0.00193,           0.00020, -0.00320,   0.11686, 0.05127, 0.05667,         54.26951, 60.00000, 0.05615,            -0.02999, -0.03013, -0.09872,   25.06554, 1540,      3,3,3    
8093232.00000, 0.00034, 0.00406,   0.17119, -1.08634, -0.00193,           0.00017, -0.00128,   0.06564, 0.05361, 0.05667,         54.01913, 60.00000, 0.05868,            -0.03999, -0.03021, -0.08335,   25.00919, 1540,      3,3,3    
8103232.00000, 0.00041, 0.00498,   0.15415, -1.08458, -0.00193,           0.00016, -0.00104,   0.17539, 0.05351, 0.05667,         53.73439, 60.00000, 0.06244,            -0.02999, -0.03089, -0.07306,   24.97469, 1539,      3,3,3    
8113232.00000, 0.00045, 0.00242,   0.16455, -1.09243, -0.00399,           0.00015, -0.00031,   -0.01301, 0.05653, 0.08107,        53.44655, 60.00000, 0.06605,            -0.03999, -0.03295, -0.09603,   25.06992, 1540,      3,3,3    
8123232.00000, 0.00048, 0.00092,   0.14912, -1.09720, -0.00399,           0.00018, 0.00184,   0.04118, 0.06954, 0.08107,          53.13342, 60.00000, 0.07182,            -0.03999, -0.03411, -0.09656,   25.07779, 1540,      3,3,3    
8133288.00000, 0.00051, 0.00224,   0.08469, -1.09288, -0.00399,           0.00022, 0.00209,   0.12498, 0.06512, 0.08107,          52.75805, 60.00000, 0.07946,            -0.03999, -0.03512, -0.09986,   25.09515, 1541,      3,3,3    
8143288.00000, 0.00054, 0.00563,   0.02199, -1.08539, -0.00399,           0.00025, 0.00570,   0.05746, 0.07025, 0.08107,          52.37311, 60.00000, 0.08340,            -0.02999, -0.03371, -0.07143,   24.98285, 1539,      3,3,3    
8153288.00000, 0.00058, 0.00149,   0.09176, -1.08129, -0.00399,           0.00028, 0.00141,   -0.04173, 0.08233, 0.08107,         51.95355, 60.00000, 0.08962,            -0.03999, -0.03227, -0.04291,   24.87019, 1538,      3,3,3    
8163292.00000, 0.00064, 0.01017,   0.03041, -1.07383, 0.00969,            0.00033, 0.00729,   0.18355, 0.10393, 0.06444,          51.52444, 60.00000, 0.09302,            -0.02999, -0.03307, -0.04694,   24.88935, 1538,      3,3,3    
8173318.00000, 0.00075, 0.01037,   0.23243, -1.07318, 0.00969,            0.00034, -0.00003,   0.02168, 0.10806, 0.06444,         51.03620, 60.00000, 0.10430,            -0.03999, -0.03381, -0.05812,   24.93440, 1539,      3,3,3    
8183378.00000, 0.00081, 0.00794,   0.02466, -1.06577, 0.00969,            0.00033, 0.00078,   0.06011, 0.13048, 0.06444,          50.56317, 60.00000, 0.10512,            -0.02999, -0.03217, -0.02066,   24.78747, 1537,      3,3,3    
8193380.00000, 0.00088, 0.00462,   0.16859, -1.05255, 0.00969,            0.00032, -0.00123,   0.09954, 0.14107, 0.06444,         50.04644, 60.00000, 0.10442,            -0.02999, -0.03052, 0.00730,   24.67596, 1535,      3,3,3    
8203388.00000, 0.00095, 0.01447,   0.16946, -1.05471, 0.00969,            0.00034, 0.00364,   0.11622, 0.15158, 0.06444,          49.55175, 60.00000, 0.11675,            -0.02999, -0.03041, 0.00248,   24.69316, 1535,      3,3,3    
8213388.00000, 0.00108, 0.01277,   0.15837, -1.05384, 0.02176,            0.00036, -0.00622,   0.01487, 0.17362, 0.13480,         48.95030, 60.00000, 0.11760,            -0.02999, -0.02883, 0.01597,   24.63518, 1535,      3,3,3    
8223388.00000, 0.00121, 0.01132,   0.16874, -1.05275, 0.02176,            0.00033, -0.00270,   -0.02330, 0.19490, 0.13480,        48.38301, 60.00000, 0.12450,            -0.02999, -0.02892, 0.00194,   24.68749, 1535,      3,3,3    
8233388.00000, 0.00129, 0.00544,   0.22416, -1.05798, 0.02176,            0.00027, -0.00646,   0.11231, 0.21433, 0.13480,         47.76891, 60.00000, 0.13515,            -0.01000, -0.02751, 0.01976,   24.61465, 1534,      3,3,3    
8243388.00000, 0.00130, -0.00223,   0.21649, -1.05920, 0.02176,           0.00026, 0.00307,   0.04161, 0.22099, 0.13480,          47.45551, 60.00000, 0.12998,            -0.02999, -0.02851, -0.00206,   24.70027, 1535,      3,3,3    
8253456.00000, 0.00128, 0.00164,   0.00054, -1.04253, 0.02176,            0.00027, 0.00267,   -0.09579, 0.26506, 0.13480,         46.50836, 60.00000, 0.13500,            -0.02999, -0.02878, -0.01055,   24.73288, 1536,      3,3,3    
8263456.00000, 0.00130, -0.00013,   0.06161, -1.02167, 0.01614,           0.00030, 0.00351,   -0.06577, 0.29573, 0.07121,         45.87749, 60.00000, 0.14557,            -0.02999, -0.02974, -0.01630,   24.75900, 1536,      3,3,3    
8273468.00000, 0.00137, 0.01672,   0.20872, -1.00583, 0.01614,            0.00026, -0.01557,   -0.25551, 0.33961, 0.07121,        45.22159, 60.00000, 0.15237,            -0.03999, -0.03059, -0.00389,   24.71800, 1536,      3,3,3    
8283468.00000, 0.00148, -0.00736,   0.12319, -0.99748, 0.01614,           0.00011, -0.00430,   0.06510, 0.36569, 0.07121,         44.53383, 60.00000, 0.15553,            -0.03999, -0.03122, -0.00036,   24.70773, 1536,      3,3,3    
8293468.00000, 0.00150, -0.00148,   0.23639, -0.98891, 0.01614,           0.00007, 0.00700,   -0.14857, 0.39244, 0.07121,         43.80836, 60.00000, 0.15775,            -0.01000, -0.02946, 0.02028,   24.62280, 1534,      3,3,3    
8303468.00000, 0.00152, -0.00371,   0.07546, -0.97349, 0.01614,           0.00011, 0.00330,   0.02855, 0.42133, 0.07121,          43.09845, 60.00000, 0.16536,            -0.01000, -0.02639, 0.04657,   24.50967, 1533,      3,3,3    
8313468.00000, 0.00153, -0.00700,   -0.06824, -0.94234, 0.01803,          0.00013, 0.01517,   -0.02752, 0.44862, 0.04562,         42.38463, 60.00000, 0.16231,            -0.01000, -0.02491, 0.06031,   24.45133, 1532,      3,3,3    
8323468.00000, 0.00137, -0.01955,   0.05947, -0.93885, 0.01803,           0.00058, 0.05952,   -0.42282, 0.46390, 0.04562,         42.07643, 60.00000, 0.16432,            -0.01000, -0.02365, 0.06179,   24.44038, 1532,      3,3,3    
8333468.00000, 0.00114, -0.00511,   0.24469, -0.92378, 0.01803,           0.00110, 0.01299,   -0.21551, 0.51511, 0.04562,         41.32702, 60.00000, 0.16792,            -0.02999, -0.02245, 0.06460,   24.42343, 1532,      3,3,3    
8343492.00000, 0.00115, -0.01865,   0.22237, -0.89762, 0.01803,           0.00117, 0.03760,   -0.32464, 0.58373, 0.04562,         40.26532, 60.00000, 0.16824,            -0.01000, -0.02163, 0.07703,   24.37348, 1531,      3,3,3    
8353492.00000, 0.00125, 0.02686,   -0.12435, -0.88071, 0.01803,           0.00103, -0.05130,   -0.05026, 0.61026, 0.04562,        39.61870, 60.00000, 0.16857,            0.00000, -0.02036, -0.01143,   24.69315, 1535,      3,3,3    
8363492.00000, 0.00131, 0.01004,   -0.17346, -0.86582, -0.25657,          0.00096, -0.02500,   -0.01702, 0.64393, 0.20147,        38.93428, 60.00000, 0.17273,            -0.02999, -0.02165, -0.02465,   24.74875, 1536,      3,3,3    
8373492.00000, 0.00130, 0.00225,   0.10611, -0.84598, -0.25657,           0.00116, 0.03895,   -0.13156, 0.66433, 0.20147,         38.24355, 60.00000, 0.17285,            -0.02999, -0.02277, 0.01595,   24.60446, 1534,      3,3,3    
8383492.00000, 0.00129, 0.01383,   -0.52431, -0.82167, -0.25657,          0.00131, -0.00308,   -0.10668, 0.69290, 0.20147,        37.57712, 60.00000, 0.17243,            -0.01000, -0.02058, 0.01626,   24.59340, 1534,      3,3,3    
8393492.00000, 0.00111, -0.03932,   0.04428, -0.79045, -0.25657,          0.00156, 0.04745,   -0.32693, 0.72268, 0.20147,         36.94831, 60.00000, 0.17327,            0.00000, -0.01860, 0.25670,   23.69415, 1522,      3,3,3    
8403492.00000, 0.00100, -0.02331,   -0.44326, -0.73676, -0.25657,         0.00173, 0.03161,   -0.25091, 0.77439, 0.20147,         36.30588, 60.00000, 0.17539,            -0.02999, -0.01632, 0.21004,   23.85524, 1524,      3,3,3    
8413492.00000, 0.00075, -0.01253,   -0.01899, -0.71626, 0.17848,          0.00206, 0.00492,   -0.15706, 0.79153, -0.06030,        35.72595, 60.00000, 0.16914,            -0.01000, -0.01297, 0.26555,   23.63231, 1521,      3,3,3    
8423492.00000, 0.00059, -0.04379,   -0.34602, -0.64877, 0.17848,          0.00234, 0.06185,   -0.32874, 0.82316, -0.06030,        35.15037, 60.00000, 0.17795,            -0.01000, -0.01090, 0.14216,   24.07817, 1527,      3,3,3    
8433536.00000, 0.00010, 0.00391,   0.09771, -0.63926, 0.17848,            0.00300, -0.02256,   0.07592, 0.82826, -0.06030,        34.60156, 60.00000, 0.16503,            0.00000, -0.00803, 0.19187,   23.87925, 1524,      3,3,3    
8443536.00000, 0.00010, 0.03669,   -0.65755, -0.56286, 0.17848,           0.00327, 0.00741,   -0.36180, 0.85328, -0.06030,        34.08129, 60.00000, 0.17610,            0.00000, -0.00482, 0.12873,   24.09816, 1527,      3,3,3    
8453536.00000, 0.00008, 0.02227,   0.30165, -0.54990, 0.17848,            0.00356, -0.02171,   -0.20978, 0.89494, -0.06030,       33.56066, 60.00000, 0.16348,            0.01000, -0.00213, 0.18174,   23.88702, 1524,      3,3,3    
8463536.00000, 0.00041, 0.07382,   -0.79988, -0.50207, -0.08172,          0.00355, -0.05535,   -0.40376, 0.91638, 0.16764,        33.11552, 60.00000, 0.16808,            -0.01000, -0.00213, 0.09218,   24.22105, 1529,      3,3,3    
8473536.00000, 0.00060, 0.02624,   -0.14247, -0.44453, -0.08172,          0.00373, 0.00694,   -0.21095, 0.95527, 0.16764,         32.64132, 60.00000, 0.16384,            -0.01000, -0.00278, -0.01155,   24.60405, 1534,      3,3,3    
8483536.00000, 0.00117, 0.07488,   -0.35318, -0.41934, -0.08172,          0.00360, -0.05874,   -0.02609, 0.95415, 0.16764,        32.23205, 60.00000, 0.15877,            0.00000, -0.00304, -0.08968,   24.89444, 1538,      3,3,3    
8493536.00000, 0.00151, -0.01318,   -0.42685, -0.35783, -0.08172,         0.00347, 0.00431,   -0.29742, 0.97747, 0.16764,         31.84656, 60.00000, 0.15351,            0.01000, -0.00223, -0.01730,   24.62328, 1534,      3,3,3    
8503536.00000, 0.00119, -0.01978,   -0.29936, -0.33521, -0.08172,         0.00371, 0.00941,   0.03087, 0.97890, 0.16764,          31.68519, 60.00000, 0.14883,            -0.01000, -0.00228, 0.04550,   24.39092, 1531,      3,3,3    
8513536.00000, 0.00101, -0.02963,   -0.87463, -0.28618, 0.08055,          0.00368, 0.00511,   -0.10879, 0.96913, -0.04035,        31.29344, 60.00000, 0.16074,            0.00000, -0.00044, 0.20561,   23.79265, 1523,      3,3,3    
8523596.00000, 0.00052, -0.05401,   0.12677, -0.14786, 0.08055,           0.00387, 0.02478,   -0.41642, 1.00758, -0.04035,        30.73318, 60.00000, 0.13977,            0.01000, 0.00200, 0.16612,   23.92434, 1525,      3,3,3    
8533596.00000, 0.00027, -0.03776,   -0.23544, -0.15458, 0.08055,          0.00405, 0.04888,   -0.45918, 1.03766, -0.04035,        30.50209, 60.00000, 0.14623,            0.01000, 0.00339, 0.06963,   24.27373, 1530,      3,3,3    
8543596.00000, 0.00028, 0.03043,   -1.06209, -0.06070, 0.08055,           0.00417, -0.04720,   -0.53402, 1.07426, -0.04035,       30.17436, 60.00000, 0.15978,            0.00000, 0.00478, 0.19515,   23.80715, 1523,      3,3,3    
8553596.00000, 0.00060, -0.02152,   0.07792, -0.00566, 0.08055,           0.00346, -0.00761,   -0.29326, 1.09215, -0.04035,       29.89950, 60.00000, 0.13717,            -0.01000, 0.00621, 0.19801,   23.78438, 1523,      3,3,3    
8563596.00000, 0.00071, -0.02269,   -0.52245, -0.01180, -0.00963,         0.00296, -0.00842,   -0.14026, 1.09219, -0.05442,       29.74673, 60.00000, 0.12882,            0.01000, 0.00889, 0.26065,   23.54049, 1520,      3,3,3    
